[{"website": "www.beelitzerkuerbis.de", "fax": "033204/63 80 29", "fee": "K.A.", "from": "19.09.2015", "name": "K\u00fcrbis- und Spargelhof Syring - Mit gro\u00dfem Kreiserntefest", "zip": "14547", "lon": "13.0236674", "mail": "info@beelitzerkuerbis.de", "comments": "", "county": "Beelitz", "to": "20.09.2015", "host": "Syring - Feinkost", "location": "Trebbiner Str. 69f, Beelitz OT Zauchwitz", "time": "K.A.", "lat": "52.2324131", "tel": "033204/63 80 - 0", "id": "586"}, {"website": "www.carnica-spectaculi.de", "fax": "033602/29 64", "fee": "Eintritt Erwachsene 10 \u20ac (3-Tageskarte 15 \u20ac) , Kinder bis 5 Jahre frei, \nKinder 6 - 16 Jahre 5 \u20ac (8 \u20ac), Sch\u00fcler, Studenten, gewandete G\u00e4ste 8 \u20ac \n(13 \u20ac), Familie 25 \u20ac (30 \u20ac) , Besuch der Museen, Ausstellungen und \nTurmbesuch der Burg im Eintrittspreis enthalten", "from": "04.04.2015", "name": "18. Osterspectaculum auf der Burg Beeskow - Historischer Markt, Ritterlager & Ritterk\u00e4mpfe am Boden, Musik & Show", "zip": "15848", "lon": "14.2471058", "mail": "post@carnica.de", "comments": "", "county": "Beeskow", "to": "06.04.2015", "host": "Carnica Historische Feste & M\u00e4rkte", "location": "Burg Beeskow", "time": "10:00-20:00", "lat": "52.1721569", "tel": "0171/515 32 70", "id": "448"}, {"website": "www.laubinger.de", "fax": "033439/14 34 92", "fee": "Eintritt frei", "from": "12.06.2015", "name": "24. Hussitenfestspiele Bernau", "zip": "16321", "lon": "13.5837352", "mail": "info@laubinger.de", "comments": "gro\u00dfe Kirmes im Stadtpark Bernau, Mittelalterspektakel, Altstadtmarkt, gro\u00dfer Festumzug", "county": "Bernau", "to": "14.06.2015", "host": "LAUBINGER Veranstaltungsagentur", "location": "Stadt und Stadtpark Bernau", "time": "Fr 14:00-01:00\nSa 10:00-01:00\nSo 10:00-19:00", "lat": "52.676942", "tel": "033439/14 34 90", "id": "488"}, {"website": "www.BurgimSpreewald.de", "fax": "035603/750 16 16", "fee": "Eintritt frei", "from": "28.08.2015", "name": "23. Heimat- und Trachtenfest des Amtes Burg (Spreewald)", "zip": "", "lon": "14.1481268", "mail": "info@BurgimSpreewald.de", "comments": "Gro\u00dfer traditioneller Festumzug: 30.08., 14:00", "county": "Burg (Spreewald)", "to": "30.08.2015", "host": "Veranstaltungsagentur Rica Neels, Cottbus, i. Z. m. dem Amt Burg (Spreewald)", "location": "Festplatz", "time": "10:00-00:00", "lat": "51.8317244", "tel": "035603/75 01 60", "id": "552"}, {"website": "www.schaustellerverband-berlin.de", "fax": "213 40 34", "fee": "Eintritt frei", "from": "04.04.2015", "name": "4. Ostermarkt auf dem Breitscheidplatz", "zip": "10789", "lon": "13.336131393999", "mail": "info@svbev.de", "comments": "", "county": "Charlottenburg-Wilmersdorf", "to": "12.04.2015", "host": "Schaustellerverband Berlin e. V.\n", "location": "Breitscheidplatz", "time": "Mo - Do 11:00-21:00\nFr - So 11:00-22:00", "lat": "52.50479265", "tel": "213 32 90\n", "id": "2"}, {"website": "www.ruedinet.de", "fax": "", "fee": "Eintritt frei", "from": "09.05.2015", "name": "Maifest 2015", "zip": "14197", "lon": "13.3151614", "mail": "mail@ruedi-net.de", "comments": "Marktmeile:\nSa, So 11:00-19:00 ", "county": "Charlottenburg-Wilmersdorf", "to": "10.05.2015", "host": "R\u00fcdi-Net e. V.\n", "location": "R\u00fcdesheimer Platz", "time": "Sa 11:00-22:00\nSo 10:00-20:00\n", "lat": "52.472812", "tel": "0152/33 79 85 14", "id": "4"}, {"website": "www.catering-company-berlin.de", "fax": "28 59 81 40", "fee": "K.A.", "from": "29.05.2015", "name": "Fest der Nationen", "zip": "10779", "lon": "13.3330606", "mail": "cateringcompany@email.de", "comments": "", "county": "Charlottenburg-Wilmersdorf", "to": "31.05.2015", "host": "Catering Company GmbH\nHerr Arzig\n", "location": "Prager Platz", "time": "\nK.A.", "lat": "52.4929352", "tel": "282 21 84, 0170/222 12", "id": "6"}, {"website": "www.family-and-friends-eV.de", "fax": "305 55 21", "fee": "K.A.", "from": "09.05.2015", "name": "Fr\u00fchling in Westend", "zip": "14052", "lon": "13.2591788", "mail": "stadtkultur@family-and-friends-eV.de", "comments": "", "county": "Charlottenburg-Wilmersdorf", "to": "10.05.2015", "host": "Family & Friends e. V.\n", "location": "Preu\u00dfenallee", "time": "Sa 11:00-23:00\nSo 11:00-20:00", "lat": "52.5125366", "tel": "0178 / 238 55 21", "id": "8"}, {"website": "K.A.", "fax": "", "fee": "K.A.", "from": "24.05.2015", "name": "Kinder- und Familienfest auf dem Klausener Platz", "zip": "14059", "lon": "13.2902918", "mail": "ensar.camii@web.de", "comments": "", "county": "Charlottenburg-Wilmersdorf", "to": "25.05.2015", "host": "Ensar Camii e. V.\n", "location": "Klausener Platz", "time": "10:00-22:00", "lat": "52.5178286", "tel": "33 00 74 29/35", "id": "10"}, {"website": "www.kunsthand-berlin.de", "fax": "401 74 40", "fee": "K.A.", "from": "30.05.2015", "name": "6. Berliner Kunstallee", "zip": "14059", "lon": "13.2963146", "mail": "info@kunsthand-berlin.de", "comments": "", "county": "Charlottenburg-Wilmersdorf", "to": "31.05.2015", "host": "Cornelja Hasler, Kunsthand-Berlin", "location": "Schlo\u00dfstr. 1-12\ngg\u00fc. Schloss Charlottenburg", "time": "11:00-18:00", "lat": "52.518611", "tel": "40 63 70 31", "id": "12"}, {"website": "www.austria.info/berlin", "fax": "", "fee": "Eintritt frei", "from": "21.06.2015", "name": "Fest im \u00d6sterreich Park", "zip": "10589", "lon": "13.3049498666229", "mail": "markus.aspetzberger@austria.info", "comments": "", "county": "Charlottenburg-Wilmersdorf", "to": "21.06.2015", "host": "\u00d6sterreich Werbung, Kontakt: Markus Aspetzberger", "location": "S\u00f6mmeringstr. 1", "time": "15:00-22:00", "lat": "52.5216676", "tel": "21 91 48 16", "id": "14"}, {"website": "www.csd-berlin.de", "fax": "23 62 86 34", "fee": "Eintritt frei", "from": "27.06.2015", "name": "37. Christopher Street Day Parade 2015", "zip": "10707", "lon": "13.3071494", "mail": "info@csd-berlin.de", "comments": "", "county": "Charlottenburg-Wilmersdorf", "to": "27.06.2015", "host": "Berliner CSD e. V.", "location": "Beginn: Kurf\u00fcrstendamm", "time": "12:30", "lat": "52.5000976", "tel": "23 62 86 32", "id": "18"}, {"website": "www.fetedelamusique.de", "fax": "", "fee": "Eintritt frei", "from": "21.06.2015", "name": "21. F\u00eate de la Musique", "zip": "", "lon": "13.2639518", "mail": "hallo@fetedelamusique.de", "comments": "Veranstaltungsorte und Uhrzeiten: siehe gesondertes Verzeichnis", "county": "Charlottenburg-Wilmersdorf", "to": "21.06.2015", "host": "F\u00eate Company", "location": "", "time": "14:00-22:00", "lat": "52.5078558", "tel": "+49-30- 417 15 289", "id": "20"}, {"website": "www.wollenschlaeger-berlin.de", "fax": "03322/423 41 39", "fee": "K.A.", "from": "03.07.2015", "name": "35. Internationales Drehorgelfest", "zip": "10789", "lon": "13.336131393999", "mail": "info@wollenschlaeger-berlin.de", "comments": "", "county": "Charlottenburg-Wilmersdorf", "to": "05.07.2015", "host": "Schaustellerbetrieb Thilo-Harry Wollenschlaeger", "location": "Breitscheidplatz/Kaiser-Wilhelm-Ged\u00e4chtniskirche", "time": "Fr 11:00-24:00\nSa 11:00-24:00\nSo 11:00-21:00", "lat": "52.50479265", "tel": "0163/400 05 00", "id": "22"}, {"website": "www.ducksteinfestival.de", "fax": "", "fee": "K.A.", "from": "10.07.2015", "name": "IV. Duckstein-Festival - Kulturfest", "zip": "14059", "lon": "13.2926946592777", "mail": "info@bergmann-gruppe.net", "comments": "", "county": "Charlottenburg-Wilmersdorf", "to": "19.07.2015", "host": "bwp festival & event GmbH", "location": "Schloss Charlottenburg", "time": "Mo - Fr 16:00-23:00\nSa 14:00-24:00\nSo 12:00-22:00", "lat": "52.52063055", "tel": "040/46 88 23 01", "id": "24"}, {"website": "www.chuchichaeschtli.de", "fax": "25 56 41 94", "fee": "K.A.", "from": "01.08.2015", "name": "Kleines Stra\u00dfenfest zum Schweizer Nationalfeiertag", "zip": "10719", "lon": "13.319459", "mail": "info@chuchichaeschtli.de", "comments": "", "county": "Charlottenburg-Wilmersdorf", "to": "01.08.2015", "host": "Kamfa Feinkost GmbH Chuchich\u00e4schtli", "location": "G\u00fcntzelstra\u00dfe", "time": "11:00-23:00", "lat": "52.4922377", "tel": "53 67 72 20", "id": "26"}, {"website": "www.agcity.de", "fax": "262 95 93", "fee": "Eintritt frei", "from": "31.07.2015", "name": "\"Summer In the City\" 2015 - Partnerboulevards der \"Vereinigung weltbekannter Einkaufsstra\u00dfen\" aus 8 L\u00e4ndern pr\u00e4sentieren sich", "zip": "10789", "lon": "13.336131393999", "mail": "info@agcity.de", "comments": "", "county": "Charlottenburg-Wilmersdorf", "to": "16.08.2015", "host": "Arbeitsgemeinschaft City e. V.", "location": "Breitscheidplatz an der Kaiser-Wilhelm-Ged\u00e4chtniskirche", "time": "31.07.: 16:30-24:00\nSo - Do 10:00-22:00\nFr, Sa 10:00-24:00", "lat": "52.50479265", "tel": "262 95 91/92", "id": "28"}, {"website": "www.ruedi-net.de", "fax": "", "fee": "Eintritt frei", "from": "05.09.2015", "name": "Sommerfest am R\u00fcdesheimer Platz - \"Wir treffen uns am R\u00fcdesheimer Platz\"", "zip": "14197", "lon": "13.3151614", "mail": "mail@ruedi-net.de", "comments": "Marktmeile: Sa, So 11:00-19:00", "county": "Charlottenburg-Wilmersdorf", "to": "06.09.2015", "host": "R\u00fcdi-Net e V., Das Netzwerk am R\u00fcdesheimer Platz", "location": "R\u00fcdesheimer Platz und Landauer Stra\u00dfe", "time": "Sa 11:00-22:00\nSo 10:30-20:00", "lat": "52.472812", "tel": "0152/33 79 85 14", "id": "30"}, {"website": "www.senioren-berlin.de", "fax": "86 20 89 71", "fee": "Eintritt frei", "from": "05.09.2015", "name": "41. Berliner Seniorenwoche", "zip": "10789", "lon": "13.336131393999", "mail": "info@senioren-berlin.de", "comments": "", "county": "Charlottenburg-Wilmersdorf", "to": "17.09.2015", "host": "Senatsverwaltung f\u00fcr Gesundheit und Soziales", "location": "Breitscheidplatz", "time": "10:00 - 17:00", "lat": "52.50479265", "tel": "90 28 27 92", "id": "32"}, {"website": "www.alt-schmargendorf.de", "fax": "823 62 77", "fee": "Eintritt frei", "from": "05.07.2015", "name": "Sommerfest der Kirchengemeinde Alt-Schmargendorf", "zip": "14199", "lon": "13.2934962", "mail": "mail@alt-schmargendorf.de", "comments": "13:00 Familiengottesdienst", "county": "Charlottenburg-Wilmersdorf", "to": "05.07.2015", "host": "Evangelische Kirchengemeinde Alt-Schmargendorf", "location": "Misdroyer Str. 39", "time": "ab 14:00", "lat": "52.4721726", "tel": "81 82 69 86", "id": "34"}, {"website": "http://oldthing.de/suarezstrasse", "fax": "", "fee": "Eintritt frei", "from": "05.09.2015", "name": "14. Antikmeile Suarezstra\u00dfe", "zip": "14057", "lon": "13.2951033", "mail": "service@oldthing.de", "comments": "", "county": "Charlottenburg-Wilmersdorf", "to": "05.09.2015", "host": "Oldthing, Michael Schrottmeyer", "location": "Suarezstra\u00dfe zwischen Kantstra\u00dfe und Kaiserdamm", "time": "12:00-20:00", "lat": "52.5068734", "tel": "29 00 20 10", "id": "36"}, {"website": "www.family-and-friends-eV.de", "fax": "305 55 21", "fee": "K.A.", "from": "19.09.2015", "name": "Herbst in Westend", "zip": "14052", "lon": "13.2591788", "mail": "stadtkultur@family-and-friends-eV.de", "comments": "", "county": "Charlottenburg-Wilmersdorf", "to": "20.09.2015", "host": "Family & Friends e. V.", "location": "Preu\u00dfenallee", "time": "Sa 11:00-23:00\nSo 11:00-20:00", "lat": "52.5125366", "tel": "305 55 21", "id": "38"}, {"website": "http://celebrate-ifa.de/", "fax": "", "fee": "Eintritt frei", "from": "04.09.2015", "name": "BERLIN CELEBRATES IFA - die Trendshow am Kurf\u00fcrstendamm", "zip": "10789", "lon": "13.336131393999", "mail": "Anne.Heinemann@ad-agenda.com", "comments": "", "county": "Charlottenburg-Wilmersdorf", "to": "09.09.2015", "host": "Arbeitsgemeinschaft City e. V. in Kooperation mit der Messe Berlin GmbH und der Agentur AD AGENDA Kommunikation und Event GmbH", "location": "Breitscheidplatz", "time": "10:00-20:00", "lat": "52.50479265", "tel": "536 33 30", "id": "632"}, {"website": "http://www.sport-im-olympiapark-berlin-2014.de", "fax": "", "fee": "K.A.", "from": "30.08.2015", "name": "Sport im Olympiapark mit dem 21. Kinder- und Jugendfestival", "zip": "14053", "lon": "13.2366468519022", "mail": "M.Luetzen@sport-im-olympiapark-berlin.de", "comments": "", "county": "Charlottenburg-Wilmersdorf", "to": "30.08.2015", "host": "Landessportbund Berlin e. V. in Kooperation mit Juventus Deutschland e. V.", "location": "Gel\u00e4nde des Olympiaparks", "time": "10:00-18:00", "lat": "52.5172117", "tel": "30 00 20", "id": "640"}, {"website": "www.drebkau-helau.de", "fax": "035602/212 64", "fee": "K.A.", "from": "08.02.2015", "name": "Umzug in Cottbus", "zip": "", "lon": "14.3357307", "mail": "info@drebkau-helau.de", "comments": "", "county": "Cottbus", "to": "08.02.2015", "host": "Drebkauer Carneval Club e. V.", "location": "Cottbuser Innenstadt", "time": "13:11-17:00", "lat": "51.7567447", "tel": "035602/212 64", "id": "432"}, {"website": "www.eberswalde.de", "fax": "03334/644 19", "fee": "K.A.", "from": "06.06.2015", "name": "8. FinE Stra\u00dfenkulturfest (Fest in Eberswalde)", "zip": "", "lon": "13.7997011", "mail": "kulturamt@eberswalde.de", "comments": "", "county": "Eberswalde", "to": "06.06.2015", "host": "Stadt Eberswalde", "location": "Eberswalder Innenstadt und am Ufer des Finowkanals", "time": "10:30-01:00", "lat": "52.8351496", "tel": "03334/645 20", "id": "510"}, {"website": "www.laubinger.de", "fax": "033439/14 34 92", "fee": "K.A.", "from": "05.06.2015", "name": "23. Heimatfest Erkner", "zip": "15537", "lon": "13.7544596", "mail": "info@laubinger.de", "comments": "gro\u00dfes Stadtfest mit B\u00fchnenprogramm, Festumzug, Feuerwerk, Vereinsprogramm", "county": "Erkner", "to": "07.06.2015", "host": "LAUBINGER Veranstaltungsagentur", "location": "Friedrichstra\u00dfe", "time": "K.A.", "lat": "52.4193576", "tel": "033439/14 34 90", "id": "478"}, {"website": "www.wollenschlaeger-berlin.de", "fax": "03322/423 41 39", "fee": "K.A.", "from": "16.10.2015", "name": "19. Falkenseer Herbstfest", "zip": "13583", "lon": "13.1732679", "mail": "info@wollenschlaeger-berlin.de", "comments": "", "county": "Falkensee", "to": "25.10.2015", "host": "Schaustellerbetrieb Thilo-Harry Wollenschlaeger", "location": "Falkenseer Chaussee", "time": "K.A.", "lat": "52.5496084", "tel": "0163/400 05 00", "id": "616"}, {"website": "www.laubinger.de", "fax": "033439/14 34 92", "fee": "K.A.", "from": "03.07.2015", "name": "20. Fl\u00f6\u00dferfest Finowfurt", "zip": "", "lon": "13.6758008058085", "mail": "info@laubinger.de", "comments": "Stadtfest mit gro\u00dfem B\u00fchnenprogramm, Festumzug, Schaufl\u00f6\u00dfen, Vereinsmeile, Handwerkern, Feuerwerk und Aktivit\u00e4ten rund ums Wasser", "county": "Finowfurt", "to": "05.07.2015", "host": "LAUBINGER Veranstaltungsagentur", "location": "", "time": "Fr 13:00", "lat": "52.84081945", "tel": "033439/14 34 90", "id": "518"}, {"website": "www.laubinger.de", "fax": "033439/14 34 92", "fee": "Eintritt frei", "from": "27.06.2015", "name": "Br\u00fcckenfest", "zip": "15370", "lon": "13.7600687", "mail": "info@laubinger.de", "comments": "Sommerfest mit B\u00fchnenprogramm, Schaustellern, H\u00e4ndlermeile und Vereinsprogramm", "county": "Fredersdorf", "to": "28.06.2015", "host": "LAUBINGER Veranstaltungsagentur", "location": "", "time": "K.A.", "lat": "52.5287002", "tel": "033439/14 34 90", "id": "516"}, {"website": "www.myfest.de", "fax": "", "fee": "Eintritt frei", "from": "01.05.2015", "name": "Myfest 2015", "zip": "10997", "lon": "13.4246604", "mail": "\ninfo@myfest.de", "comments": "", "county": "Friedrichshain-Kreuzberg", "to": "01.05.2015", "host": "Kotti e. V.", "location": "Rund um den Mariannenplatz und die Oranienstra\u00dfe", "time": "12:00-22:00", "lat": "52.5018151", "tel": "", "id": "40"}, {"website": "www.reichenbergerkiez.net", "fax": "61 62 49 99", "fee": "K.A.", "from": "13.06.2015", "name": "Familienfest im G\u00f6rlitzer Park", "zip": "10999", "lon": "13.4375502644873", "mail": "gekko-reichberger@nachbarschaftshaus.de", "comments": "", "county": "Friedrichshain-Kreuzberg", "to": "13.06.2015", "host": "Mitveranstalter: GEKKO Reichenberger Kiez im Kreuzberger Stadtteilzentrum", "location": "G\u00f6rlitzer Park", "time": "14:00-19:00", "lat": "52.49658125", "tel": "61 62 72 83", "id": "42"}, {"website": "www.openairgallery.de", "fax": "61 28 27 01", "fee": "Eintritt frei", "from": "07.06.2015", "name": "13. OpenAirGallery 2015 auf der Oberbaumbr\u00fccke", "zip": "10243", "lon": "13.4450029", "mail": "post@stadtteilausschuss-kreuzberg.de", "comments": "", "county": "Friedrichshain-Kreuzberg", "to": "07.06.2015", "host": "Stadtteilausschuss Kreuzberg e. V., Projektleiter: Herr Bayam", "location": "Oberbaumbr\u00fccke", "time": "10:00-20:00", "lat": "52.5011978", "tel": "61 28 27 00", "id": "44"}, {"website": "www.karneval-berlin.de", "fax": "", "fee": "Eintritt frei", "from": "22.05.2015", "name": "20. Karneval der Kulturen", "zip": "10961", "lon": "13.3917654", "mail": "info@karneval-berlin.de", "comments": "Stra\u00dfenumzug:\n24.05.: 12:30 - ca. 21:00, Umzugsstrecke: Hermannplatz - Hasenheide - Gneisenaustra\u00dfe - Mehringdamm", "county": "Friedrichshain-Kreuzberg", "to": "25.05.2015", "host": "Kulturprojekte Berlin GmbH", "location": "Bl\u00fccherplatz", "time": "Fr 16:00-24:00\nSa 11:00-24:00\nSo 11:00-24:00\nMo 11:00-19:00", "lat": "52.4970521", "tel": "24 74 98 47", "id": "46"}, {"website": "www.kma-kinderkarneval.de", "fax": "25 29 51 62", "fee": "Eintritt frei", "from": "23.05.2015", "name": "19. Kinderkarneval der Kulturen", "zip": "10997", "lon": "13.4246604", "mail": "booking@kma-antenne.de", "comments": "Kinderfest:\n15:00-19:00 im G\u00f6rlitzer Park", "county": "Friedrichshain-Kreuzberg", "to": "23.05.2015", "host": "Kreuzberger Musikalische Aktion KMA e. V.", "location": "Start am Mariannenplatz", "time": "13:30 Start am Mariannenplatz", "lat": "52.5018151", "tel": "25 29 51 63/4", "id": "48"}, {"website": "www.fetedelamusique.de", "fax": "", "fee": "Eintritt frei", "from": "21.06.2015", "name": "21. F\u00eate de la Musique", "zip": "", "lon": "13.4616117", "mail": "hallo@fetedelamusique.de", "comments": "Veranstaltungsorte und Uhrzeiten: siehe gesondertes Verzeichnis", "county": "Friedrichshain-Kreuzberg", "to": "21.06.2015", "host": "F\u00eate Company", "location": "", "time": "14:00-22:00\n", "lat": "52.5153063", "tel": "+49-30- 417 15 289", "id": "50"}, {"website": "www.kiez-und-kultur.de", "fax": "61 67 56 82", "fee": "Eintritt frei", "from": "26.06.2015", "name": "22. Bergmannstra\u00dfenfest/Kreuzberg jazzt!", "zip": "10965", "lon": "13.391611", "mail": "office@kiez-und-kultur.de", "comments": "", "county": "Friedrichshain-Kreuzberg", "to": "28.06.2015", "host": "Kiez und Kultur e. V.", "location": "Bergmannstra\u00dfe / Chamissoplatz", "time": "Fr 16:00-22:00\nSa 11:00-22:00\nSo 11:00-20:00", "lat": "52.4881505", "tel": "61 67 56 81", "id": "52"}, {"website": "www.openairgallery.de", "fax": "61 28 27 01", "fee": "Eintritt frei", "from": "05.07.2015", "name": "13. OpenAirGallery 2015 auf der Oberbaumbr\u00fccke", "zip": "10243", "lon": "13.4450029", "mail": "post@stadtteilausschuss-kreuzberg.de", "comments": "", "county": "Friedrichshain-Kreuzberg", "to": "05.07.2015", "host": "Stadtteilausschuss Kreuzberg e. V., Projektleiter: Herr Bayam", "location": "Oberbaumbr\u00fccke", "time": "10:00-20:00", "lat": "52.5011978", "tel": "61 28 27 00", "id": "54"}, {"website": "www.praesenta-berlin.de", "fax": "65 76 35 69", "fee": "Eintritt frei", "from": "07.08.2015", "name": "19. Internationales Berliner Bierfestival", "zip": "10243", "lon": "13.4324148", "mail": "info@praesenta-berlin.de", "comments": "www.bierfestival-berlin.de", "county": "Friedrichshain-Kreuzberg", "to": "09.08.2015", "host": "PR\u00c4SENTA GmbH", "location": "Karl-Marx-Allee, vom Strausberger Platz bis zum Frankfurter Tor", "time": "Fr 12:00-24:00\nSa 10:00-24:00\nSo 10:00-22:00", "lat": "52.5180639", "tel": "65 76 35 60", "id": "56"}, {"website": "www.parkfest-friedrichshain.de", "fax": "42 08 92 99", "fee": "Eintritt frei", "from": "08.08.2015", "name": "18. Lesbischwules Parkfest", "zip": "10249", "lon": "13.4322380876594", "mail": "awo-berlin@spree-wuhle.de", "comments": "", "county": "Friedrichshain-Kreuzberg", "to": "08.08.2015", "host": "AWO Kreisverband Berlin-Friedrichshain-Kreuzberg e. V.", "location": "Volkspark Friedrichshain", "time": "15:00-22:00", "lat": "52.52720525", "tel": "42 08 90 34", "id": "58"}, {"website": "www.radioeins.de", "fax": "", "fee": "Eintritt frei", "from": "27.08.2015", "name": "Das Radioeins Parkfest", "zip": "10963", "lon": "13.3762717075146", "mail": "office@radioeins.de", "comments": "", "county": "Friedrichshain-Kreuzberg", "to": "06.09.2015", "host": "radioeins vom RBB, Marlene-Dietrich-Allee 20, 14482 Potsdam", "location": "Park am Gleisdreieck", "time": "K.A.", "lat": "52.49509425", "tel": "0331 - 70 99 222", "id": "60"}, {"website": "www.reichenbergerkiez.net", "fax": "61 62 49 99", "fee": "Eintritt frei", "from": "29.08.2015", "name": "7. Reichenberger Kiezfest Nachbarschaftsfest", "zip": "10999", "lon": "13.4245914", "mail": "Gekko-reichberger@nachbarschaftshaus.de", "comments": "", "county": "Friedrichshain-Kreuzberg", "to": "29.08.2015", "host": "GEKKO Reichenberger Kiez im Kreuzberger Stadtteilzentrum", "location": "Reichenberger Stra\u00dfe zwischen Lausitzer Stra\u00dfe und Ohlauer Stra\u00dfe", "time": "15:00-22:00", "lat": "52.4972443", "tel": "61 62 72 83", "id": "62"}, {"website": "www.kulturamt-friedrichshain-kreuzberg.de/alte-feuerwache/", "fax": "", "fee": "K.A.", "from": "25.09.2015", "name": "Sommerfest Alte Feuerwache", "zip": "10243", "lon": "13.4423143", "mail": "studiobuehne@kulturamtfk.de", "comments": "", "county": "Friedrichshain-Kreuzberg", "to": "25.09.2015", "host": "Kulturhaus Friedrichshain, Alte Feuerwache", "location": "Alte Feuerwache, Marchlewskistr. 6", "time": "16:00-22:00", "lat": "52.516291", "tel": "426 66 36", "id": "64"}, {"website": "www.alte-feuerwache.de", "fax": "", "fee": "K.A.", "from": "13.09.2015", "name": "Sommerfest des Vereins Alte Feuerwache Kreuzberg", "zip": "10969", "lon": "13.3990512", "mail": "mailbox@alte-feuerwache.de", "comments": "", "county": "Friedrichshain-Kreuzberg", "to": "13.09.2015", "host": "Alte Feuerwache e. V.", "location": "Axel-Springer-Str. 40/41", "time": "14:00-18:00", "lat": "52.5077517", "tel": "25 39 92 10", "id": "66"}, {"website": "www.deafberlin.de", "fax": "\n030 \u2013 251 70 53", "fee": "K.A.", "from": "26.09.2015", "name": "Stra\u00dfenfest am Internationalen Welttag der Geh\u00f6rlosen im Rahmen der 4. DEAF WEEK (19. - 27.09.2015)", "zip": "10969", "lon": "13.3915763", "mail": "info@deafberlin.de", "comments": "", "county": "Friedrichshain-Kreuzberg", "to": "26.09.2015", "host": "Geh\u00f6rlosenverband Berlin e. V.", "location": "Friedrichstra\u00dfe 10 - 12, am Theodor-Wolff-Park", "time": "K.A.", "lat": "52.5013857", "tel": "", "id": "68"}, {"website": "www.hennigsdorf.de", "fax": "", "fee": "K.A.", "from": "28.08.2015", "name": "19. Hennigsdorfer Festmeile", "zip": "16741", "lon": "13.2004844", "mail": "", "comments": "", "county": "Hennigsdorf", "to": "30.08.2015", "host": "Stadt Hennigsdorf in Zusammenarbeit mit S & T Veranstaltungsservice und Bergmann Eventgastronomie", "location": "Fu\u00dfg\u00e4ngerzone zwischen Havelplatz und Postplatz", "time": "Fr 18:00-24:00\nSa 11:00-24:00\nSo 11:00-20:00", "lat": "52.6369621", "tel": "", "id": "554"}, {"website": "www.cocolorus-diaboli.de", "fax": "039826/134 24", "fee": "Eintritt: 7 Euro, erm. 3 Euro\n", "from": "19.06.2015", "name": "640 Jahrfeier", "zip": "15537", "lon": "13.8990760294303", "mail": "cocolorus@t-online.de", "comments": "", "county": "Kagel (Gr\u00fcnheide)", "to": "20.06.2015", "host": "Wandertheater Cocolorus Budenzauber, Brauchtumspflege Mecklenburg-Vorpommern e. V., Dietmar Frick", "location": "Dorfanger Kagel (Gr\u00fcnheide)", "time": "Fr 16:00-22:00\nSa 10:00-22:00\nSo 10:00-21:00", "lat": "52.4479072", "tel": "039826/134 20", "id": "490"}, {"website": "www.buschmann-winkelmann.de", "fax": "033206/610 89", "fee": "K.A.", "from": "18.04.2015", "name": "25 Jahre Buschmann und Winkelmann und Er\u00f6ffnung der Klaistower Spargelsaison", "zip": "14547", "lon": "12.8597373674223", "mail": "info@buschmann-winkelmann.de", "comments": "", "county": "Klaistow", "to": "19.04.2015", "host": "Spargel- und Erlebnishof Buschmann & Winkelmann, Glindower Str. 28, 14547 Beelitz OT Klaistow", "location": "Spargel- und Erlebnishof Klaistow", "time": "14:00-22:00", "lat": "52.29640215", "tel": "033206/610 70", "id": "446"}, {"website": "www.buschmann-winkelmann.de", "fax": "033206/610 89", "fee": "K.A.", "from": "05.04.2015", "name": "Gro\u00dfes Osterfeuer in Klaistow", "zip": "14547", "lon": "12.8597373674223", "mail": "info@buschmann-winkelmann.de", "comments": "", "county": "Klaistow", "to": "05.04.2015", "host": "Spargel- und Erlebnishof Buschmann & Winkelmann, Glindower Str. 28, 14547 Beelitz OT Klaistow", "location": "Spargel- und Erlebnishof Klaistow", "time": "18:00-22:00\n", "lat": "52.29640215", "tel": "033206/610 70", "id": "450"}, {"website": "www.buschmann-winkelmann.de", "fax": "033206/610 89", "fee": "K.A.", "from": "01.05.2015", "name": "Maifeiertag mit Live-Musik", "zip": "14547", "lon": "12.8597373674223", "mail": "info@buschmann-winkelmann.de", "comments": "", "county": "Klaistow", "to": "01.05.2015", "host": "Spargel- und Erlebnishof Buschmann & Winkelmann, Glindower Str. 28, 14547 Beelitz OT Klaistow", "location": "Spargel- und Erlebnishof Klaistow", "time": "16:00-22:00", "lat": "52.29640215", "tel": "033206/610 70", "id": "464"}, {"website": "www.buschmann-winkelmann.de", "fax": "033206/610 89", "fee": "K.A.", "from": "03.05.2015", "name": "Klaistower Spargelfest", "zip": "14547", "lon": "12.8597373674223", "mail": "info@buschmann-winkelmann.de", "comments": "", "county": "Klaistow", "to": "03.05.2015", "host": "Spargel- und Erlebnishof Buschmann & Winkelmann, Glindower Str. 28, 14547 Beelitz OT Klaistow", "location": "Spargel- und Erlebnishof Klaistow", "time": "16:00-22:00", "lat": "52.29640215", "tel": "033206/610 70", "id": "470"}, {"website": "www.buschmann-winkelmann.de", "fax": "033206/610 89", "fee": "K.A.", "from": "10.05.2015", "name": "Zum Muttertag Beelitzer Spargel und Gesang mit dem Shantychor der Wasserschutzpolizei Brandenburg", "zip": "14547", "lon": "12.8597373674223", "mail": "info@buschmann-winkelmann.de", "comments": "", "county": "Klaistow", "to": "10.05.2015", "host": "Spargel- und Erlebnishof Buschmann & Winkelmann, Glindower Str. 28, 14547 Beelitz OT Klaistow", "location": "Spargel- und Erlebnishof Klaistow", "time": "14:00-20:00", "lat": "52.29640215", "tel": "033206/610 70", "id": "474"}, {"website": "www.buschmann-winkelmann.de", "fax": "033206/610 89", "fee": "K.A.", "from": "14.05.2015", "name": "Himmelfahrt in Klaistow", "zip": "14547", "lon": "12.8597373674223", "mail": "info@buschmann-winkelmann.de", "comments": "", "county": "Klaistow", "to": "14.05.2015", "host": "Spargel- und Erlebnishof Buschmann & Winkelmann, Glindower Str. 28, 14547 Beelitz OT Klaistow", "location": "Spargel- und Erlebnishof Klaistow", "time": "12:00-22:00", "lat": "52.29640215", "tel": "033206/610 70", "id": "480"}, {"website": "www.buschmann-winkelmann.de", "fax": "033206/610 89", "fee": "K.A.", "from": "30.05.2015", "name": "9. Beelitzer Spargellauf", "zip": "14547", "lon": "12.8597373674223", "mail": "info@buschmann-winkelmann.de", "comments": "", "county": "Klaistow", "to": "30.05.2015", "host": "Spargel- und Erlebnishof Buschmann & Winkelmann, Glindower Str. 28, 14547 Beelitz OT Klaistow", "location": "Spargel- und Erlebnishof Klaistow", "time": "ab 10:00", "lat": "52.29640215", "tel": "033206/610 70", "id": "492"}, {"website": "www.buschmann-winkelmann.de", "fax": "033206/610 89", "fee": "K.A.", "from": "01.06.2015", "name": "Kindertag", "zip": "14547", "lon": "12.8597373674223", "mail": "info@buschmann-winkelmann.de", "comments": "", "county": "Klaistow", "to": "01.06.2015", "host": "Spargel- und Erlebnishof Buschmann & Winkelmann, Glindower Str. 28, 14547 Beelitz OT Klaistow", "location": "Spargel- und Erlebnishof Klaistow", "time": "ab 10:00", "lat": "52.29640215", "tel": "033206/610 70", "id": "494"}, {"website": "www.buschmann-winkelmann.de", "fax": "033206/610 89", "fee": "K.A.", "from": "24.05.2015", "name": "Pfingsten auf dem Spargelhof Klaistow", "zip": "14547", "lon": "12.8597373674223", "mail": "info@buschmann-winkelmann.de", "comments": "", "county": "Klaistow", "to": "25.05.2015", "host": "Spargel- und Erlebnishof Buschmann & Winkelmann, Glindower Str. 28, 14547 Beelitz OT Klaistow", "location": "Spargel- und Erlebnishof Klaistow", "time": "12:00-20:00\n", "lat": "52.29640215", "tel": "033206/610 70", "id": "502"}, {"website": "www.buschmann-winkelmann.de", "fax": "033206/610 89", "fee": "K.A.", "from": "13.06.2015", "name": "Hoffest zur Brandenburger Landpartie", "zip": "14547", "lon": "12.8597373674223", "mail": "info@buschmann-winkelmann.de", "comments": "", "county": "Klaistow", "to": "14.06.2015", "host": "Spargel- und Erlebnishof Buschmann & Winkelmann, Glindower Str. 28, 14547 Beelitz OT Klaistow", "location": "Spargel- und Erlebnishof Klaistow", "time": "K.A.", "lat": "52.29640215", "tel": "033206/610 70", "id": "508"}, {"website": "www.buschmann-winkelmann.de", "fax": "033206/610 89", "fee": "K.A.", "from": "07.06.2015", "name": "Erdbeerfest mit Riesen-Erdbeertorte und DRK-Blutspendeaktion", "zip": "14547", "lon": "12.8597373674223", "mail": "info@buschmann-winkelmann.de", "comments": "Anschnitt 10:00", "county": "Klaistow", "to": "07.06.2015", "host": "Spargel- und Erlebnishof Buschmann & Winkelmann, Glindower Str. 28, 14547 Beelitz OT Klaistow", "location": "Spargel- und Erlebnishof Klaistow", "time": "K.A.", "lat": "52.29640215", "tel": "033206/610 70", "id": "514"}, {"website": "www.buschmann-winkelmann.de", "fax": "033206/610 89", "fee": "K.A.", "from": "08.08.2015", "name": "Mud Day - Spa\u00df im Matsch", "zip": "14547", "lon": "12.8597373674223", "mail": "info@buschmann-winkelmann.de", "comments": "", "county": "Klaistow", "to": "08.08.2015", "host": "Spargel- und Erlebnishof Buschmann & Winkelmann, Glindower Str. 28, 14547 Beelitz OT Klaistow", "location": "Spargel- und Erlebnishof Klaistow", "time": "12:00-17:00", "lat": "52.29640215", "tel": "033206/610 70", "id": "524"}, {"website": "www.buschmann-winkelmann.de", "fax": "033206/610 89", "fee": "K.A.", "from": "19.07.2015", "name": "Heidelbeerfest", "zip": "14547", "lon": "12.8597373674223", "mail": "info@buschmann-winkelmann.de", "comments": "", "county": "Klaistow", "to": "19.07.2015", "host": "Spargel- und Erlebnishof Buschmann & Winkelmann, Glindower Str. 28, 14547 Beelitz OT Klaistow", "location": "Spargel- und Erlebnishof Klaistow", "time": "ab 12:00", "lat": "52.29640215", "tel": "033206/610 70", "id": "532"}, {"website": "www.buschmann-winkelmann.de", "fax": "033206/610 89", "fee": "K.A.", "from": "29.08.2015", "name": "Zuckert\u00fctenfest f\u00fcr Brandenburger und Berliner ABC-Sch\u00fctzen", "zip": "14547", "lon": "12.8597373674223", "mail": "info@buschmann-winkelmann.de", "comments": "", "county": "Klaistow", "to": "29.08.2015", "host": "Spargel- und Erlebnishof Buschmann & Winkelmann, Glindower Str. 28, 14547 Beelitz OT Klaistow", "location": "Spargel- und Erlebnishof Klaistow", "time": "12:00-15:00", "lat": "52.29640215", "tel": "033206/610 70", "id": "546"}, {"website": "www.buschmann-winkelmann.de", "fax": "033206/610 89", "fee": "K.A.", "from": "29.08.2015", "name": "Er\u00f6ffnung der 12. Berlin-Brandenburgischen K\u00fcrbisausstellung \"K\u00f6nige in Klaistow\"", "zip": "14547", "lon": "12.8597373674223", "mail": "info@buschmann-winkelmann.de", "comments": "", "county": "Klaistow", "to": "29.08.2015", "host": "Spargel- und Erlebnishof Buschmann & Winkelmann, Glindower Str. 28, 14547 Beelitz OT Klaistow", "location": "Spargel- und Erlebnishof Klaistow", "time": "K.A.", "lat": "52.29640215", "tel": "033206/610 70", "id": "558"}, {"website": "www.buschmann-winkelmann.de", "fax": "033206/610 89", "fee": "K.A.", "from": "06.09.2015", "name": "Riesen-K\u00fcrbissuppe", "zip": "14547", "lon": "12.8597373674223", "mail": "info@buschmann-winkelmann.de", "comments": "", "county": "Klaistow", "to": "06.09.2015", "host": "Spargel- und Erlebnishof Buschmann & Winkelmann, Glindower Str. 28, 14547 Beelitz OT Klaistow", "location": "Spargel- und Erlebnishof Klaistow", "time": "K.A.", "lat": "52.29640215", "tel": "033206/610 70", "id": "582"}, {"website": "www.buschmann-winkelmann.de", "fax": "033206/610 89", "fee": "K.A.", "from": "20.09.2015", "name": "3. Deutsche Riesengem\u00fcse-Wiegemeisterschaft", "zip": "14547", "lon": "12.8597373674223", "mail": "info@buschmann-winkelmann.de", "comments": "", "county": "Klaistow", "to": "20.09.2015", "host": "Spargel- und Erlebnishof Buschmann & Winkelmann, Glindower Str. 28, 14547 Beelitz OT Klaistow", "location": "Spargel- und Erlebnishof Klaistow", "time": "Ab 14:00", "lat": "52.29640215", "tel": "033206/610 70", "id": "592"}, {"website": "www.buschmann-winkelmann.de", "fax": "033206/610 89", "fee": "K.A.", "from": "27.09.2015", "name": "Offene GPC-K\u00fcrbiswiegemeisterschaft Berlin-Brandenburg 2015", "zip": "14547", "lon": "12.8597373674223", "mail": "info@buschmann-winkelmann.de", "comments": "Vorjahressieger: 951 kg", "county": "Klaistow", "to": "27.09.2015", "host": "Spargel- und Erlebnishof Buschmann & Winkelmann, Glindower Str. 28, 14547 Beelitz OT Klaistow", "location": "Spargel- und Erlebnishof Klaistow", "time": "ab 14:00", "lat": "52.29640215", "tel": "033206/610 70", "id": "602"}, {"website": "www.buschmann-winkelmann.de", "fax": "033206/610 89", "fee": "Eintritt 7 \u20ac", "from": "25.09.2015", "name": "Oktoberfest", "zip": "14547", "lon": "12.8597373674223", "mail": "info@buschmann-winkelmann.de", "comments": "", "county": "Klaistow", "to": "25.09.2015", "host": "Spargel- und Erlebnishof Buschmann & Winkelmann, Glindower Str. 28, 14547 Beelitz OT Klaistow", "location": "Spargel- und Erlebnishof Klaistow", "time": "19:00-24:00", "lat": "52.29640215", "tel": "033206/610 70", "id": "610"}, {"website": "www.buschmann-winkelmann.de", "fax": "033206/610 89", "fee": "K.A.", "from": "18.10.2015", "name": "Drachenfest", "zip": "14547", "lon": "12.8597373674223", "mail": "info@buschmann-winkelmann.de", "comments": "", "county": "Klaistow", "to": "18.10.2015", "host": "Spargel- und Erlebnishof Buschmann & Winkelmann, Glindower Str. 28, 14547 Beelitz OT Klaistow", "location": "Spargel- und Erlebnishof Klaistow", "time": "ab 11:00", "lat": "52.29640215", "tel": "033206/610 70", "id": "618"}, {"website": "www.buschmann-winkelmann.de", "fax": "033206/610 89", "fee": "K.A.", "from": "31.10.2015", "name": "Halloween-Fest mit Kinder-Kost\u00fcmdisko, Lagerfeuer, Laternenumzug und Feuerwerk", "zip": "14547", "lon": "12.8597373674223", "mail": "info@buschmann-winkelmann.de", "comments": "", "county": "Klaistow", "to": "31.10.2015", "host": "Spargel- und Erlebnishof Buschmann & Winkelmann, Glindower Str. 28, 14547 Beelitz OT Klaistow", "location": "Spargel- und Erlebnishof Klaistow", "time": "ab 12:00", "lat": "52.29640215", "tel": "033206/610 70", "id": "624"}, {"website": "www.buschmann-winkelmann.de", "fax": "033206/610 89", "fee": "K.A.", "from": "01.11.2015", "name": "K\u00fcrbisschlachtefest", "zip": "14547", "lon": "12.8597373674223", "mail": "info@buschmann-winkelmann.de", "comments": "", "county": "Klaistow", "to": "01.11.2015", "host": "Spargel- und Erlebnishof Buschmann & Winkelmann, Glindower Str. 28, 14547 Beelitz OT Klaistow", "location": "Spargel- und Erlebnishof Klaistow", "time": "ab 14:00\n", "lat": "52.29640215", "tel": "033206/610 70", "id": "626"}, {"website": "www.buschmann-winkelmann.de", "fax": "033206/610 89", "fee": "K.A.", "from": "27.11.2015", "name": "Countryfest", "zip": "14547", "lon": "12.8597373674223", "mail": "info@buschmann-winkelmann.de", "comments": "", "county": "Klaistow", "to": "27.11.2015", "host": "Spargel- und Erlebnishof Buschmann & Winkelmann, Glindower Str. 28, 14547 Beelitz OT Klaistow", "location": "Spargel- und Erlebnishof Klaistow", "time": "18:00-23:00", "lat": "52.29640215", "tel": "033206/610 70", "id": "630"}, {"website": "www.carnica-spectaculi.de", "fax": "033602/29 64", "fee": "Eintritt Erwachsene 7 \u20ac, Kinder bis 5 Jahre frei, Kinder 6 - 16 Jahre 5 \n\u20ac, Sch\u00fcler, Studenten, gewandete G\u00e4ste 6 \u20ac, Familie 18 \u20ac (2 Erwachsene \nmit eigenen Kindern bis 16 Jahre)", "from": "19.09.2015", "name": "3. Ritterfest in K\u00f6nigs Wusterhausen - Historischer Markt mit Ritterlager & Ritterturnier am Boden, Musik & Show", "zip": "15711", "lon": "13.6203723574723", "mail": "post@carnica.de", "comments": "", "county": "K\u00f6nigs Wusterhausen", "to": "20.09.2015", "host": "Carnica Historische Feste & M\u00e4rkte", "location": "Festwiese am Nottekanal, K\u00f6nigs Wusterhausen", "time": "Sa 10:00-22:00\nSo 10:00-19:00", "lat": "52.2952811", "tel": "0171/515 32 70", "id": "576"}, {"website": "www.wassersportzentrum-oranienburg.de", "fax": "03301/53 95 91", "fee": "K.A.", "from": "11.07.2015", "name": "10. Drachenbootrennen Kremmen auf dem Beetzer See", "zip": "16766", "lon": "13.0267147407176", "mail": "info@wassersportzentrum-oranienburg.de", "comments": "Abendveranstaltung: ca. 20:00-01:00", "county": "Kremmen", "to": "11.07.2015", "host": "Stadt Kremmen, Organisation: Wassersportzentrum Oranienburg", "location": "Am Beetzer See, Kremmen/Beetz Sommerfeld", "time": "ca. 09:00-18:00", "lat": "52.8147895", "tel": "03301/53 95 90", "id": "522"}, {"website": "www.tiefsteprovinz.de", "fax": "", "fee": "Eintritt frei", "from": "22.08.2015", "name": "Feuer und Flamme f\u00fcr Kremmen", "zip": "16766", "lon": "13.0277694456195", "mail": "daliborq@aol.com", "comments": "", "county": "Kremmen", "to": "22.08.2015", "host": "Theater \"Tiefste Provinz\"", "location": "Historisches Scheunenviertel Kremmen", "time": "Beginn 14:00", "lat": "52.756873", "tel": "0170/212 91 35", "id": "542"}, {"website": "www.scheunenviertel-kremmen.com/", "fax": "033055/707 65", "fee": "Eintritt frei", "from": "05.09.2015", "name": "Erntefest in Kremmen 2015", "zip": "16766", "lon": "13.0277694456195", "mail": "TIP@Kremmen.de", "comments": "", "county": "Kremmen", "to": "06.09.2015", "host": "Scheunenviertel Kremmen e. V.", "location": "Historisches Scheunenviertel Kremmen", "time": "Beginn 10:00", "lat": "52.756873", "tel": "033055/222 12", "id": "556"}, {"website": "www.scheunenviertel-kremmen.com", "fax": "033055/707 65", "fee": "Eintritt frei", "from": "16.10.2015", "name": "K\u00fcrbisfest", "zip": "", "lon": "13.0294822", "mail": "TIP@Kremmen.de", "comments": "", "county": "Kremmen", "to": "18.10.2015", "host": "Scheunenviertel Kremmen e. V.", "location": "Kremmen", "time": "Beginn 10:00", "lat": "52.7604941", "tel": "033055/222 12", "id": "584"}, {"website": "www.laubinger.de", "fax": "033439/14 34 92", "fee": "K.A.", "from": "09.04.2015", "name": "Fr\u00fchlingsfest Hohensch\u00f6nhausen", "zip": "13051", "lon": "13.5089119", "mail": "info@laubinger.de", "comments": "", "county": "Lichtenberg", "to": "12.04.2015", "host": "LAUBINGER Veranstaltungsagentur", "location": "Fr\u00fchlingsfest mit B\u00fchnenprogramm und Schaustellern auf dem Parkplatz am Cinemotion Kino, Kirmes", "time": "K.A.", "lat": "52.56618445", "tel": "033439/14 34 90", "id": "70"}, {"website": "www.drf-berlin.de", "fax": "20 60 55 34", "fee": "Eintritt frei", "from": "12.06.2015", "name": "9. Deutsch-Russische Festtage 2015", "zip": "10318", "lon": "13.5239887", "mail": "info@drf-berlin.de", "comments": "", "county": "Lichtenberg", "to": "14.06.2015", "host": "Deutsch Russische Festtage e. V.", "location": "Trabrennbahn Karlshorst, Treskowallee 129", "time": "Fr ab ca. 15:00\nSa ca. 10:00-23:00\nSo ca. 10:00-20:00", "lat": "52.475903", "tel": "20 60 55 33", "id": "72"}, {"website": "www.firmaris.de", "fax": "577 97 99 55", "fee": "K.A.", "from": "25.04.2015", "name": "Kinder- und Familienfest Viva Victoria", "zip": "10317", "lon": "13.477816415815", "mail": "alte.schmiede@sozdia.de", "comments": "www.sozdia.de", "county": "Lichtenberg", "to": "25.04.2015", "host": "firmaris gGmbH, Jugend- und Begegnungsst\u00e4tte alte schmiede", "location": "Vielfalt im Kiez - rund um die alte schmiede", "time": "14:00-22:00", "lat": "52.5032018", "tel": "57 79 79 90", "id": "74"}, {"website": "www.fetedelamusique.de", "fax": "", "fee": "Eintritt frei", "from": "21.06.2015", "name": "21. F\u00eate de la Musique", "zip": "", "lon": "13.5118927", "mail": "hallo@fetedelamusique.de", "comments": "Veranstaltungsorte und Uhrzeiten: siehe gesondertes Verzeichnis", "county": "Lichtenberg", "to": "21.06.2015", "host": "F\u00eate Company", "location": "", "time": "15:00-22:00", "lat": "52.5321606", "tel": "+49-30- 417 15 289", "id": "76"}, {"website": "www.firmaris.de", "fax": "89 62 35 47", "fee": "K.A.", "from": "29.08.2015", "name": "Wasserfest in der Rummelsburger Bucht", "zip": "10317", "lon": "13.4807398", "mail": "info@firmaris.de", "comments": "", "county": "Lichtenberg", "to": "29.08.2015", "host": "firmaris gGmbH, iKARUS stadtteilzentrum", "location": "Rummelsburger Bucht", "time": "13:00-22:00\n", "lat": "52.4980128", "tel": "89 62 25 52", "id": "78"}, {"website": "www.schloss-friedrichsfelde.de", "fax": "512 40 61", "fee": "Eintritt: regul\u00e4rer Tierparkeintritt", "from": "22.08.2015", "name": "Schlossfest Friedrichsfelde - 6. Gro\u00dfes Rokoko-Fest", "zip": "10319", "lon": "13.5285944890668", "mail": "info@schloss-friedrichsfelde.de", "comments": "", "county": "Lichtenberg", "to": "23.08.2015", "host": "Freunde Hauptstadtzoos - Schloss Friedrichsfelde", "location": "Tierpark Berlin", "time": "10:00-17:00", "lat": "52.50329545", "tel": "51 53 14 07", "id": "80"}, {"website": "www.laubinger.de", "fax": "033439/14 34 92", "fee": "K.A.", "from": "01.10.2015", "name": "Erntefest Berlin-Hohensch\u00f6nhausen", "zip": "", "lon": "13.5118927", "mail": "info@laubinger.de", "comments": "gro\u00dfes Erntefest mit Erntegarten, Erntebaum, B\u00fchnenprogramm", "county": "Lichtenberg", "to": "04.10.2015", "host": "LAUBINGER Veranstaltungsagentur", "location": "", "time": "K.A.", "lat": "52.5321606", "tel": "033439/14 34 90", "id": "82"}, {"website": "www.laubinger.de", "fax": "033439/14 34 92", "fee": "Eintritt frei", "from": "03.04.2015", "name": "Osterfest in der \"Helle Mitte\"", "zip": "12627", "lon": "13.6047096031871", "mail": "info@laubinger.de", "comments": "", "county": "Marzahn-Hellersdorf", "to": "06.04.2015", "host": "LAUBINGER Veranstaltungsagentur", "location": "Ostermarkt mit B\u00fchnenprogramm und Schaustellern auf dem Alice-Salomon-Platz", "time": "Fr 11:00-22:00\nSa, So 11:00-23:00\nMo 11:00-21:00", "lat": "52.5369219", "tel": "033439/14 34 90", "id": "84"}, {"website": "www.artecom-event.de", "fax": "67 04 46 56", "fee": "Sondereintritt ganztags 7 \u20ac, erm\u00e4\u00dfigt 3,50 \u20ac", "from": "12.04.2015", "name": "Kirschbl\u00fctenfest", "zip": "12685", "lon": "13.5756334", "mail": "agentur@artecom-event.de", "comments": "Fern\u00f6stlicher Bl\u00fctenzauber mitten in Berlin - Erleben Sie die Kultur Asiens mit Tanz, Theater und Musik", "county": "Marzahn-Hellersdorf", "to": "12.04.2015", "host": "G\u00e4rten der Welt, durchf\u00fchrende Agentur: Artecom Veranstaltungs GmbH & Co. KG", "location": "im und am Japanischen, Koreanischen \"Seouler\" und Chinesischen Garten, Eisenacher Str. 99", "time": "12:00-17:00", "lat": "52.5397936", "tel": "55 49 41 10", "id": "86"}, {"website": "www.laubinger.de", "fax": "033439/14 34 92", "fee": "K.A.", "from": "01.05.2015", "name": "\"Helle Mitte tanzt\"", "zip": "12627", "lon": "13.6047096031871", "mail": "info@laubinger.de", "comments": "", "county": "Marzahn-Hellersdorf", "to": "03.05.2015", "host": "LAUBINGER Veranstaltungsagentur", "location": "Alice-Salomon-Platz", "time": "K.A.", "lat": "52.5369219", "tel": "033439/14 34 90", "id": "88"}, {"website": "www.artecom-event.de", "fax": "67 04 46 56", "fee": ", Sondereintritt ganztags 7 \u20ac, erm\u00e4\u00dfigt 3,50 \u20ac", "from": "09.05.2015", "name": "Lotuslaternenfest im und am Koreanischen \"Seouler Garten\" ", "zip": "12685", "lon": "13.5756334", "mail": "agentur@artecom-event.de", "comments": "Fern\u00f6stliche Welt aus Licht und Schatten - koreanisches Fest anl\u00e4sslich Buddhas Geburtstag", "county": "Marzahn-Hellersdorf", "to": "09.05.2015", "host": "G\u00e4rten der Welt, durchf\u00fchrende Agentur: Artecom Veranstaltungs GmbH & Co. KG", "location": "Eisenacher Str. 99", "time": "18:00-22:00", "lat": "52.5397936", "tel": "55 49 41 10", "id": "90"}, {"website": "", "fax": "", "fee": "K.A.", "from": "09.05.2015", "name": "Berliner Europafest", "zip": "12627", "lon": "13.6047096031871", "mail": "sandra.brumm@ba-mh.verwalt-berlin.de", "comments": "", "county": "Marzahn-Hellersdorf", "to": "09.05.2015", "host": "Senatskanzlei des Regierenden B\u00fcrgermeisters von Berlin, Ref. f\u00fcr EU-Angelegenheiten, und Bezirksamt Marzahn-Hellersdorf von Berlin", "location": "Alice-Salomon-Platz", "time": "14:00-19:00", "lat": "52.5369219", "tel": "90293 - 26 30", "id": "92"}, {"website": "www.praesenta-berlin.de", "fax": "65 76 35 69", "fee": "K.A.", "from": "14.05.2015", "name": "16. Biesdorfer Bl\u00fctenfest mit Weindorf", "zip": "12683", "lon": "13.559397409462", "mail": "info@praesenta-berlin.de", "comments": "", "county": "Marzahn-Hellersdorf", "to": "17.05.2015", "host": "PR\u00c4SENTA GmbH", "location": "Oberfeldstra\u00dfe und Schlosspark", "time": "Do 10:00-22:00\nFr 10:00-22:00\nSa 10:00-22:00\nSo 10:00-19:00", "lat": "52.51125255", "tel": "65 76 35 60", "id": "94"}, {"website": "", "fax": "", "fee": "K.A.", "from": "01.06.2015", "name": "Kindertag mit Theaterprojekt", "zip": "12679", "lon": "13.5562545044834", "mail": "zimmermannfrau@gmail.com", "comments": "", "county": "Marzahn-Hellersdorf", "to": "01.06.2015", "host": "Kontakt: Jugendfreizeiteinrichtung Fair", "location": "Victor-Klemperer-Platz", "time": "15:00-18:00", "lat": "52.54658595", "tel": "", "id": "96"}, {"website": "www.Wollenschlaeger-berlin.de", "fax": "03322/423 41 39", "fee": "Eintritt frei", "from": "10.06.2015", "name": "\"Die fr\u00f6hliche Helle Mitte\"", "zip": "12627", "lon": "13.6047096031871", "mail": "info@wollenschlaeger-berlin.de", "comments": "", "county": "Marzahn-Hellersdorf", "to": "14.06.2015", "host": "Schaustellerbetrieb Thilo-Harry Wollenschlaeger", "location": "Hellersdorf vor dem Rathaus/Alice-Salomon-Platz", "time": "10.06.: 12:00-22:00\n11.06.: 10:00-23:00\n12.06.: 10:00-23:00\n13.06.: 10:00-22:00\n14.06.: 10:00-20:00", "lat": "52.5369219", "tel": "0163/400 05 00", "id": "98"}, {"website": "", "fax": "", "fee": "K.A.", "from": "13.06.2015", "name": "TREFFPUNKT M - Kinder- und Jugendfestival", "zip": "12679", "lon": "13.5562545044834", "mail": "marzahner-promenade@bsm-berlin.de", "comments": "", "county": "Marzahn-Hellersdorf", "to": "13.06.2015", "host": "Kontakt: marzahner-promenade@bsm-berlin.de", "location": "Victor-Klemperer-Platz vor dem Freizeitforum", "time": "11:00-18:00", "lat": "52.54658595", "tel": "", "id": "100"}, {"website": "", "fax": "896 00 31 13", "fee": "K.A.", "from": "13.06.2015", "name": "\"Marzahn bewegt\" Kinder- und Jugendfestival", "zip": "12679", "lon": "13.5562545044834", "mail": "", "comments": "", "county": "Marzahn-Hellersdorf", "to": "13.06.2015", "host": "Kontakt: Gesch\u00e4ftsstra\u00dfenmanagement Marzahner Promenade, Regina Ro\u00df, c/o RR Stadtberatung", "location": "Viktor-Klemperer-Platz vor dem Freizeitforum Marzahn", "time": "13:00-18:00", "lat": "52.54658595", "tel": "896 00 31 12", "id": "102"}, {"website": "www.fetedelamusique.de", "fax": "", "fee": "Eintritt frei", "from": "21.06.2015", "name": "21. F\u00eate de la Musique", "zip": "", "lon": "13.5876634", "mail": "hallo@fetedelamusique.de", "comments": "Veranstaltungsorte und Uhrzeiten: siehe gesondertes Verzeichnis", "county": "Marzahn-Hellersdorf", "to": "21.06.2015", "host": "F\u00eate Company", "location": "", "time": "", "lat": "52.5225225", "tel": "+49-30- 417 15 289", "id": "104"}, {"website": "www.artecom-event.de", "fax": "67 04 46 56", "fee": "K.A.", "from": "28.06.2015", "name": "Klang-Farben-Fest im und am Christlichen Garten", "zip": "12685", "lon": "13.5756334", "mail": "agentur@artecom-event.de", "comments": "Inspirierende Kl\u00e4nge und Worte rund um den Christlichen Garten, Sondereintritt ganztags 7 \u20ac, erm\u00e4\u00dfigt 3,50 \u20ac", "county": "Marzahn-Hellersdorf", "to": "28.06.2015", "host": "G\u00e4rten der Welt, durchf\u00fchrende Agentur: Artecom Veranstaltungs GmbH & Co. KG", "location": "Eisenacher Str. 99", "time": "12:00-17:00", "lat": "52.5397936", "tel": "55 49 41 10", "id": "106"}, {"website": "", "fax": "", "fee": "K.A.", "from": "05.07.2015", "name": "2. Helene-Weigel-Platz Fest \"Helli l\u00e4sst gr\u00fc\u00dfen\"", "zip": "12681", "lon": "13.5412634", "mail": "Oleg.Peters@ba-mh.verwalt-berlin.de", "comments": "", "county": "Marzahn-Hellersdorf", "to": "05.07.2015", "host": "Bezirksamt Marzahn-Hellersdorf von Berlin, Standortmarketing Marzahn-Hellersdorf, Oleg Peters", "location": "Helene-Weigel-Platz", "time": "14:00-22:30", "lat": "52.5267862", "tel": "90293 - 26 22", "id": "108"}, {"website": "www.gaerten-der-welt.de", "fax": "70 09 06 70", "fee": "Sondereintritt (ganztags) 7 \u20ac, erm\u00e4\u00dfigt 3,50 \u20ac", "from": "25.07.2015", "name": "Berliner HighlandGames", "zip": "12685", "lon": "13.5756334", "mail": "event@gaerten-der-welt.de", "comments": "", "county": "Marzahn-Hellersdorf", "to": "26.07.2015", "host": "G\u00e4rten der Welt, Eisenacher Str. 99, 12685 Berlin", "location": "G\u00e4rten der Welt, auf und an der Spiel- und Liegewiese am Windrad, Eisenacher Str. 99", "time": "11:00-17:00", "lat": "52.5397936", "tel": "70 09 06-0", "id": "110"}, {"website": "www.artecom-event.de", "fax": "67 04 46 56", "fee": "Sondereintritt ganztags 7 \u20ac, erm\u00e4\u00dfigt 3,50 \u20ac", "from": "09.08.2015", "name": "Sultan's Fest im und am Orientalischen Garten", "zip": "12685", "lon": "13.5756334", "mail": "agentur@artecom-berlin.de", "comments": "Der Sultan bittet zum Fest - 10 Jahre Orientalischer Garten, ", "county": "Marzahn-Hellersdorf", "to": "09.08.2015", "host": "G\u00e4rten der Welt, durchf\u00fchrende Agentur: Artecom Veranstaltungs GmbH & Co. KG", "location": "Eisenacher Str. 99", "time": "14:00-18:00", "lat": "52.5397936", "tel": "55 49 41 10", "id": "112"}, {"website": "www.artecom-event.de", "fax": "67 04 46 56", "fee": "Sitzpl\u00e4tze: Kategorie A: 30,00 \u20ac; Kategorie B: 28,00 \u20ac; Jahreskartenbesitzer erhalten 50% Rabatt auf die Eintrittspreise\u00a0\n\n\u00a0", "from": "05.09.2015", "name": "Viva la musica", "zip": "12685", "lon": "13.5756334", "mail": "agentur@artecom-event.de", "comments": "", "county": "Marzahn-Hellersdorf", "to": "05.09.2015", "host": "G\u00e4rten der Welt, durchf\u00fchrende Agentur: Artecom Veranstaltungs GmbH & Co. KG", "location": "G\u00e4rten der Welt, Eisenacher Str. 99", "time": "19:30-22:00", "lat": "52.5397936", "tel": "55 49 41 10", "id": "114"}, {"website": "www.artecom-event.de", "fax": "67 04 46 56", "fee": ", Sondereintritt ganztags 7 \u20ac, erm\u00e4\u00dfigt 3,50 \u20ac", "from": "19.09.2015", "name": "Mondfest im und am Chinesischen Garten", "zip": "12685", "lon": "13.5756334", "mail": "agentur@artecom-event.de", "comments": "\"S\u00fc\u00dfer, leuchtender Mond\" - Ein Familienfest zur Verehrung des Mondes in der Tradition Chinas", "county": "Marzahn-Hellersdorf", "to": "19.09.2015", "host": "G\u00e4rten der Welt, durchf\u00fchrende Agentur: Artecom Veranstaltungs GmbH & Co. KG", "location": "Eisenacher Str. 99", "time": "17:30-21:30", "lat": "52.5397936", "tel": "55 49 41 10", "id": "116"}, {"website": "www.praesenta-berlin.de", "fax": "65 76 35 69", "fee": "Eintritt frei", "from": "11.09.2015", "name": "21. Alt-Marzahner Erntefest mit Weindorf", "zip": "12685", "lon": "13.5626173", "mail": "info@praesenta-berlin.de", "comments": "", "county": "Marzahn-Hellersdorf", "to": "13.09.2015", "host": "PR\u00c4SENTA GmbH", "location": "Hinter der M\u00fchle im alten Dorf", "time": "Fr 12:00-22:00\nSa 10:00-22:00\nSo 10:00-19:00", "lat": "52.5438652", "tel": "65 76 35 60", "id": "118"}, {"website": "www.laubinger.de", "fax": "033439/14 34 92", "fee": "K.A.", "from": "25.09.2015", "name": "Erntefest Berlin-Hellersdorf", "zip": "12627", "lon": "13.5912189", "mail": "info@laubinger.de", "comments": "gro\u00dfes Stadt- und Erntefest mit Erntegarten, Erntebaum, Live-Boxen und Kirmes auf der Festmeile", "county": "Marzahn-Hellersdorf", "to": "27.09.2015", "host": "LAUBINGER Veranstaltungsagentur", "location": "Festwiese Hellersdorfer Stra\u00dfe", "time": "K.A.", "lat": "52.5313347", "tel": "033439/14 34 90", "id": "120"}, {"website": "www.Wollenschlaeger-berlin.de", "fax": "03322/423 41 39", "fee": "hier einsehbar:\nhttp://www.oktoberfest-bb.de/oktoberfest-marzahn.html", "from": "25.09.2015", "name": "Oktoberfest Le Prom Marzahn", "zip": "", "lon": "13.5876634", "mail": "info@wollenschlaeger-berlin.de", "comments": "Reservierungs-Hotline: 0177 / 42 18 976", "county": "Marzahn-Hellersdorf", "to": "05.10.2015", "host": "Schaustellerbetrieb Thilo-Harry Wollenschlaeger", "location": "", "time": "Mo, Di 15:00-22:00\nMi, Do 15:00-24:00\nFr, Sa 15:00-24:00\nSo 12:00-20:00", "lat": "52.5225225", "tel": "0163/400 05 00", "id": "122"}, {"website": "", "fax": "264 85 15 05", "fee": "K.A.", "from": "19.09.2015", "name": "\"Marzahn bewegt\" degewo Sporttag", "zip": "12679", "lon": "13.5562545044834", "mail": "nadine.falkowski@degewo.de", "comments": "", "county": "Marzahn-Hellersdorf", "to": "19.09.2015", "host": "Kontakt: Nadine Falkowski-Koch Marketing/Unternehmenskommunikation", "location": "Viktor-Klemperer-Platz und Marzahner Promenade", "time": "13:00-19:00", "lat": "52.54658595", "tel": "264 85 15 22", "id": "124"}, {"website": "www.artecom-event.de", "fax": "67 04 46 56", "fee": "Sondereintritt ganztags 7 \u20ac, erm\u00e4\u00dfigt 3,50 \u20ac", "from": "18.10.2015", "name": "Herbstfest im und am Karl-Foerster-Staudengarten", "zip": "12685", "lon": "13.5756334", "mail": "agentur@artecom-event.de", "comments": "Blattwerk, Blues und Rock'n'Roll", "county": "Marzahn-Hellersdorf", "to": "18.10.2015", "host": "G\u00e4rten der Welt", "location": "Eisenacher Str. 99", "time": "12:00-16:00", "lat": "52.5397936", "tel": "700 90 66 99", "id": "126"}, {"website": "www.schaustellerverband-berlin.de", "fax": "213 40 34", "fee": "Karfreitag geschlossen, mittwochs halbe Preise auf allen Karussells und Bahnen, Eintritt frei", "from": "27.03.2015", "name": "45. Berliner Fr\u00fchlingsfest auf dem Zentralen Festplatz", "zip": "13405", "lon": "13.3248448", "mail": "info@svbev.de", "comments": "", "county": "Mitte", "to": "19.04.2015", "host": "Schaustellerverband Berlin e. V.\n", "location": "Kurt-Schumacher-Damm 207", "time": "Mo - Sa ab 14:00\nSo, Ostermontag ab 12:00\n", "lat": "52.56006", "tel": "213 32 90, 213 40", "id": "128"}, {"website": "www.bergmannevent.de", "fax": "033439/656 44", "fee": "Eintritt frei", "from": "27.03.2015", "name": "Ostermarkt auf dem Alexanderplatz", "zip": "10178", "lon": "13.4134789539492", "mail": "info@bergmannevent.de", "comments": "", "county": "Mitte", "to": "12.04.2015", "host": "Bergmann Eventgastronomie", "location": "Alexanderplatz", "time": "K.A.", "lat": "52.52193965", "tel": "033439/656 43, 03", "id": "130"}, {"website": "www.23nisankinderfest.de", "fax": "70 60 04 02", "fee": "K.A.", "from": "25.04.2015", "name": "23 Nisan Internationales Kinderfest am Brandenburger Tor", "zip": "10117", "lon": "13.3777343363579", "mail": "23nisanbuehne@googlemail.com", "comments": "", "county": "Mitte", "to": "26.04.2015", "host": "23 Nisan Internationales Kinderfest e. V., Tegeler Weg 97, 10589 Berlin", "location": "Am Brandenburger Tor", "time": "Sa 11:00-22:00\nSo 11:00-20:00", "lat": "52.5162024", "tel": "70 60 04 00", "id": "132"}, {"website": "www.oerbb.de", "fax": "10/11/0342", "fee": "K.A.", "from": "12.05.2015", "name": "4. Berliner Fest der Kirchen - Aus Freude am Glauben", "zip": "10178", "lon": "13.4134789539492", "mail": "post@oerbb.de", "comments": "", "county": "Mitte", "to": "12.05.2015", "host": "Kontakt: \u00d6komenischer Rat Berlin-Brandenburg, Gierkeplatz 2 - 4, 10585 Berlin", "location": "Alexanderplatz", "time": "K.A.", "lat": "52.52193965", "tel": "342 10 00", "id": "134"}, {"website": "www.garmin-velothon-berlin.de", "fax": "", "fee": "K.A.", "from": "31.05.2015", "name": "Garmin Velothon Berlin 2015", "zip": "10557", "lon": "13.3363898", "mail": "", "comments": "", "county": "Mitte", "to": "31.05.2015", "host": "Lagard\u00e8re Unlimited Events Germany GmbH, Garmin Velothon Berlin", "location": "Zielbereich: Stra\u00dfe des 17. Juni", "time": "K.A.", "lat": "52.51363", "tel": "01805/77 17 50", "id": "136"}, {"website": "www.compact-team.de", "fax": "44 38 00 59", "fee": "K.A.", "from": "04.06.2015", "name": "UEFA Champions Festival Brandenburger Tor", "zip": "10117", "lon": "13.3787516206695", "mail": "info@compact-team.de", "comments": "", "county": "Mitte", "to": "06.06.2015", "host": "COMPACTTEAM Event - Marketing - Concept GmbH, Mendelssohnstr. 27, 10405 Berlin", "location": "auf dem Pariser Platz, Platz des 18. M\u00e4rz und Stra\u00dfe des 17. Juni (bis Y.-Rabin-Stra\u00dfe)", "time": "Do 11:00-23:00\nFr 11:00-23:00\nSa 11:00-20:00\nSo 11:00-17:00", "lat": "52.5163548", "tel": "44 38 00 50", "id": "138"}, {"website": "www.grueneliga-berlin.de", "fax": "", "fee": "K.A.", "from": "14.06.2015", "name": "20. UMWELTFESTIVAL der GR\u00dcNEN LIGA", "zip": "10117", "lon": "13.3777343363579", "mail": "umweltfestival@grueneliga.de", "comments": "www.umweltfestival.de", "county": "Mitte", "to": "14.06.2015", "host": "GR\u00dcNE LIGA Berlin, Anke Ortmann", "location": "Am Brandenburger Tor und auf der Stra\u00dfe des 17. Juni", "time": "11:00-19:00", "lat": "52.5162024", "tel": "443 39 10", "id": "140"}, {"website": "www.schaustellerverband-berlin.de", "fax": "213 40 34", "fee": "Eintritt 2 \u20ac, Kinder bis 14 Jahre frei", "from": "19.06.2015", "name": "53. Deutsch-Franz\u00f6sisches Volksfest auf dem Zentralen Festplatz", "zip": "13405", "lon": "13.3248448", "mail": "info@svbev.de", "comments": "", "county": "Mitte", "to": "19.07.2015", "host": "Schaustellerverband Berlin e. V.\n", "location": "Kurt-Schumacher-Damm 207", "time": "Mo - Sa ab 14:00\nSo ab 13:00", "lat": "52.56006", "tel": "213 32 90", "id": "142"}, {"website": "www.fetedelamusique.de", "fax": "", "fee": "Eintritt frei", "from": "21.06.2015", "name": "21. F\u00eate de la Musique", "zip": "", "lon": "13.4023757", "mail": "hallo@fetedelamusique.de", "comments": "Veranstaltungsorte und Uhrzeiten: siehe gesondertes Verzeichnis", "county": "Mitte", "to": "21.06.2015", "host": "F\u00eate Company", "location": "", "time": "ab 14:00", "lat": "52.5176896", "tel": "+49-30- 417 15 289", "id": "144"}, {"website": "www.csd-berlin.de", "fax": "23 62 86 34", "fee": "Eintritt frei", "from": "27.06.2015", "name": "37. Christopher Street Day Parade 2015", "zip": "10117", "lon": "13.3777343363579", "mail": "", "comments": "", "county": "Mitte", "to": "27.06.2015", "host": "Berliner Christopher Street Day e. V.", "location": "Abschlusskundgebung: Brandenburger Tor", "time": "ab 17:00", "lat": "52.5162024", "tel": "23 62 86 32, 23 6", "id": "146"}, {"website": "www.hits4kids.de", "fax": "", "fee": "Eintritt frei", "from": "04.07.2015", "name": "6. HITS4KIDS Sommerfest", "zip": "10178", "lon": "13.4134789539492", "mail": "hits4kids.tour.ltd@googlemail.com", "comments": "", "county": "Mitte", "to": "05.07.2015", "host": "HITS4KIDS TOUR Ltd., Herr Brockmeyer", "location": "Alexanderplatz", "time": "11:00-18:00", "lat": "52.52193965", "tel": "0201/95 97 97 30", "id": "148"}, {"website": "www.shutupandplay.eu", "fax": "", "fee": "K.A.", "from": "18.07.2015", "name": "ING-DiBa #shutupandplay 2015 - 3on3 Basketball Tournament", "zip": "10557", "lon": "13.3691433", "mail": "info@shutupandplay.eu", "comments": "", "county": "Mitte", "to": "19.07.2015", "host": "Park & Ride Sports GmbH", "location": "Washingtonplatz / Hauptbahnhof", "time": "K.A.", "lat": "52.5241922", "tel": "0151/70 00 87 79", "id": "150"}, {"website": "www.berlin-lacht.de", "fax": "69 20 42 28 - 9", "fee": "Eintritt frei", "from": "23.07.2015", "name": "8. Internationales Stra\u00dfentheaterfestival \"Berlin lacht!\"", "zip": "10178", "lon": "13.4134789539492", "mail": "info@berlin-lacht.de", "comments": "18 Tage auf 5 B\u00fchnen non stop Int. Stra\u00dfentheater - Artistik, Clownerie, Theater, Feuershows, Installationen u.v.m. f\u00fcr die ganze Familie, Hutspenden erbeten", "county": "Mitte", "to": "09.08.2015", "host": "Berlin lacht! e. V.", "location": "Alexanderplatz", "time": "23.07.: 16:00-22:00\n09.08.: 11:00-20:00\nalle anderen Tage: 11:00-22:00\n", "lat": "52.52193965", "tel": "69 20 42 28 - 1, ", "id": "152"}, {"website": "www.deutsch-amerikanisches-volksfest.de", "fax": "03322/423 41 39", "fee": "Eintritt 2 \u20ac", "from": "24.07.2015", "name": "55. Deutsch-Amerikanisches Volksfest", "zip": "10557", "lon": "13.369581", "mail": "info@wollenschlaeger-berlin.de", "comments": "", "county": "Mitte", "to": "16.08.2015", "host": "Schaustellerbetrieb Thilo-Harry Wollenschlaeger", "location": "Gel\u00e4nde der Heidestra\u00dfe 30, Berlin-Mitte", "time": "Mo, Di 14:00-22:00\nMi, Do 14:00-23:00\nFr, Sa 14:00-23:30\nSo 12:00-23:00", "lat": "52.5288976", "tel": "0163/400 05 00", "id": "154"}, {"website": "www.berliner-festplatz.de", "fax": "", "fee": "K.A.", "from": "08.08.2015", "name": "REWE Family - Das Sommerfest", "zip": "13405", "lon": "13.3248448", "mail": "info@berliner-festplatz.de", "comments": "", "county": "Mitte", "to": "08.08.2015", "host": "Kontakt: Zentraler Festplatz Berlin", "location": "Zentraler Festplatz, Kurt-Schumacher-Damm", "time": "K.A.", "lat": "52.56006", "tel": "23 62 72 21", "id": "156"}, {"website": "www.historischer-hafen-berlin.de", "fax": "", "fee": "K.A.", "from": "29.08.2015", "name": "25. Hafenfest 2015", "zip": "10179", "lon": "13.4109972", "mail": "buero@historischer-hafen-berlin.de", "comments": "", "county": "Mitte", "to": "30.08.2015", "host": "Berlin-Brandenburgische Schiffahrtsgesellschaft e. V. - Historischer Hafen Berlin", "location": "M\u00e4rkisches Ufer/Inselbr\u00fccke an der Fischerinsel", "time": "jeweils ab 11:00", "lat": "52.5132635", "tel": "", "id": "158"}, {"website": "www.nareyka.de", "fax": "229 25 00", "fee": "K.A.", "from": "04.09.2015", "name": "33. Herbstfest M\u00fcllerstra\u00dfe!", "zip": "13353", "lon": "13.3592678155562", "mail": "info@nareyka.de", "comments": "", "county": "Mitte", "to": "06.09.2015", "host": "Nareyka Event GmbH", "location": "Berlin-Wedding zwischen Leopoldplatz und Seestra\u00dfe", "time": "Fr - Sa 10:00-22:00\nSo 10:00-20:00", "lat": "52.5469234", "tel": "229 04 86/87", "id": "160"}, {"website": "www.Wollenschlaeger-berlin.de", "fax": "03322/423 41 39", "fee": "K.A.", "from": "04.09.2015", "name": "Oktoberfest auf dem Washingtonplatz", "zip": "", "lon": "13.4023757", "mail": "info@wollenschlaeger-berlin.de", "comments": "", "county": "Mitte", "to": "20.09.2015", "host": "Schaustellerbetrieb Thilo-Harry Wollenschlaeger", "location": "", "time": "Mo - Do 12:00-23:00\nFr, Sa 15:00-24:00\nSo 12:00-22:00", "lat": "52.5176896", "tel": "0163/400 05 00", "id": "162"}, {"website": "www.berliner-stadtmission.de", "fax": "", "fee": "K.A.", "from": "05.07.2015", "name": "\"Das Beste\" - Ein Fest f\u00fcr die Stadt", "zip": "10557", "lon": "13.3635909", "mail": "info@berliner-stadtmission.de", "comments": "", "county": "Mitte", "to": "05.07.2015", "host": "Berliner Stadtmission", "location": "Berliner Stadtmission, Zentrum am Hauptbahnhof, Lehrter Str. 68", "time": "11:00-18:00", "lat": "52.5262506", "tel": "690 33 34 06", "id": "164"}, {"website": "www.schaustellerverband-berlin.de", "fax": "213 40 34", "fee": "mittwochs halbe Preise auf alle Karussells und Bahnen, Eintritt frei", "from": "25.09.2015", "name": "65. Berliner Oktoberfest auf dem Zentralen Festplatz", "zip": "13405", "lon": "13.3248448", "mail": "info@svbev.de", "comments": "", "county": "Mitte", "to": "18.10.2015", "host": "Schaustellerverband Berlin e. V.\n", "location": "Kurt-Schumacher-Damm 207", "time": "Mo,Di,Do 15:00-22:00\nMi 15:00-23:00\nFr, Sa 15:00-24:00\nSo 12:00-22:00\n03.10.: 13:00-23:00", "lat": "52.56006", "tel": "213 32 90", "id": "166"}, {"website": "www.weltkindertag.de", "fax": "", "fee": "K.A.", "from": "20.09.2015", "name": "26. Weltkindertagsfest Berlin 2015 des Deutschen Kinderhilfswerkes unter dem Motto \"Kinder willkommen!\"", "zip": "10117", "lon": "13.3770476", "mail": "", "comments": "", "county": "Mitte", "to": "20.09.2015", "host": "Deutsches Kinderhilfswerk e. V.", "location": "Potsdamer Platz", "time": "11:00-18:00", "lat": "52.5087317", "tel": "30 86 93 26", "id": "168"}, {"website": "www.bergmannevent.de", "fax": "033439/656 44", "fee": "Eintritt frei", "from": "25.09.2015", "name": "Oktoberfest auf dem Alexanderplatz", "zip": "10178", "lon": "13.4134789539492", "mail": "info@bergmannevent.de", "comments": "", "county": "Mitte", "to": "11.10.2015", "host": "Bergmann Eventgastronomie", "location": "Alexanderplatz", "time": "K.A.", "lat": "52.52193965", "tel": "033439/656 43", "id": "170"}, {"website": "www.scc-events.com", "fax": "30 12 88 20", "fee": "Eintritt frei", "from": "26.09.2015", "name": "BMW Berlin Marathon der Inlineskater", "zip": "10557", "lon": "13.3578639", "mail": "info@scc-events.com", "comments": "", "county": "Mitte", "to": "26.09.2015", "host": "SCC EVENTS GmbH", "location": "Start: Stra\u00dfe des 17. Juni, H\u00f6he Bellevueallee / Bremer Weg (Kleiner Stern)", "time": "K.A.", "lat": "52.5156172", "tel": "30 12 88 10", "id": "172"}, {"website": "www.scc-events.com", "fax": "30 12 88 20", "fee": "Eintritt frei", "from": "27.09.2015", "name": "42. BMW Berlin Marathon", "zip": "10557", "lon": "13.3578639", "mail": "info@scc-events.com", "comments": "", "county": "Mitte", "to": "27.09.2015", "host": "SCC EVENTS GmbH", "location": "Start: Stra\u00dfe des 17. Juni, H\u00f6he Bellevueallee / Bremer Weg (Kleiner Stern)", "time": "K.A.", "lat": "52.5156172", "tel": "30 12 88 10", "id": "174"}, {"website": "www.wohlthat-entertainment.de", "fax": "247 88 12", "fee": "Eintritt frei", "from": "02.10.2015", "name": "Fest zum Tag der Deutschen Einheit am Brandenburger Tor", "zip": "10557", "lon": "13.3363898", "mail": "info@wohlthat-entertainment.de", "comments": "", "county": "Mitte", "to": "04.10.2015", "host": "Wohlthat Entertainment GmbH", "location": "Stra\u00dfe des 17. Juni", "time": "K.A.", "lat": "52.51363", "tel": "247 86 11", "id": "176"}, {"website": "www.wohlthat-entertainment.de", "fax": "247 88 12", "fee": "Eintritt frei", "from": "31.12.2015", "name": "Welcome 2016 Silvester am Brandenburger Tor", "zip": "10557", "lon": "13.3363898", "mail": "info@wohlthat-entertainment.de", "comments": "", "county": "Mitte", "to": "31.12.2015", "host": "Wohlthat Entertainment GmbH", "location": "Stra\u00dfe des 17. Juni", "time": "K.A.", "lat": "52.51363", "tel": "247 86 11", "id": "178"}, {"website": "www.berlin.dgb.de", "fax": "", "fee": "Eintritt frei", "from": "01.05.2015", "name": "Kinder- und Familienfest/Maifest mit Infomarkt", "zip": "10557", "lon": "13.3363898", "mail": "", "comments": "", "county": "Mitte", "to": "01.05.2015", "host": "DGB Region Berlin, Keithstr. 1 - 3, 10787 Berlin", "location": "Stra\u00dfe des 17. Juni", "time": "11:00-19:00", "lat": "52.51363", "tel": "", "id": "638"}, {"website": "www.nikolaifestspiele.de", "fax": "46 30 90 96", "fee": "Eintritt frei", "from": "29.08.2015", "name": "3. Nikolai-Festspiele", "zip": "10178", "lon": "13.4066460127171", "mail": "verein@berlin-nikolaiviertel.com", "comments": "", "county": "Mitte", "to": "30.08.2015", "host": "Nikolaiviertel e. V., c/o fr\u00f6hlich wohnen, Propststr. 8", "location": "Nikolaiviertel", "time": "Sa 12:00-20:00\nSo 10:00-18:00", "lat": "52.5167561", "tel": "463 10 42", "id": "642"}, {"website": "www.Wollenschlaeger-berlin.de", "fax": "03322/423 41 39", "fee": "K.A.", "from": "01.04.2015", "name": "61. Britzer Baumbl\u00fcte", "zip": "12359", "lon": "13.4497127", "mail": "info@wollenschlaeger-berlin.de", "comments": "Volksfest unter bl\u00fchenden B\u00e4umen direkt am Gutspark Britz", "county": "Neuk\u00f6lln", "to": "19.04.2015", "host": "Schaustellerbetrieb Thilo-Harry Wollenschlaeger", "location": "Parchimer Allee", "time": "Mo - Sa 14:00-22:00\nSo 12:00-22:00", "lat": "52.4457253", "tel": "0163/400 05 00", "id": "180"}, {"website": "www.Wollenschlaeger-berlin.de", "fax": "03322/423 41 39", "fee": "Eintritt frei", "from": "29.04.2015", "name": "50. Neuk\u00f6llner Maientage", "zip": "10967", "lon": "13.4238204", "mail": "info@wollenschlaeger-berlin.de", "comments": "Berlins gr\u00f6\u00dftes Parkfest im Volkspark Hasenheide", "county": "Neuk\u00f6lln", "to": "25.05.2015", "host": "Schaustellerbetrieb Thilo-Harry Wollenschlaeger", "location": "Volkspark Hasenheide", "time": "Mo, Di, Do 15:00-23:00\nMi, Sa 14:00-24:00\nFr 15:00-24:00\nSo und feiertags 14:00-23:00", "lat": "52.4864172", "tel": "0163/400 05 00", "id": "182"}, {"website": "www.cocolorus-diaboli.de", "fax": "039826/134 24", "fee": "K.A.", "from": "13.06.2015", "name": "Cocomedivale - Fantasyfestival auf Schloss Britz", "zip": "12359", "lon": "13.4364137", "mail": "cocolorus@t-online.de", "comments": "", "county": "Neuk\u00f6lln", "to": "14.06.2015", "host": "Wandertheater Cocolorus Budenzauber, Brauchtumspflege Mecklenburg-Vorpommern e. V.", "location": "Alt-Britz 81 - 89", "time": "K.A.", "lat": "52.4460087", "tel": "039826/134 20", "id": "184"}, {"website": "www.hier-in-rudow.de", "fax": "033055/212 91", "fee": "K.A.", "from": "09.05.2015", "name": "17. Rudower Fr\u00fchlingsmeile", "zip": "12357", "lon": "13.4918665", "mail": "ag-rudow@web.de", "comments": "", "county": "Neuk\u00f6lln", "to": "10.05.2015", "host": "AG Rudow e. V.", "location": "Stra\u00dfe Alt-Rudow", "time": "K.A.", "lat": "52.420438", "tel": "0163/676 31 64", "id": "186"}, {"website": "www.britzermuehle.de", "fax": "", "fee": "Eintritt frei", "from": "06.06.2015", "name": "8. Britzer M\u00fchlenfest\n150 Jahre Britzer M\u00fchle", "zip": "12349", "lon": "13.4346475", "mail": "", "comments": "", "county": "Neuk\u00f6lln", "to": "07.06.2015", "host": "Restaurant Britzer M\u00fchle, Britzer M\u00fcller Verein e. V., Evangelische Kirchengemeinde Alt-Buckow, AG Sympathisches Buckow, Verein Kinder in Gefahr e. V.", "location": "Buckower Damm 130", "time": "Sa 13:00-22:00\nSo 10:00-22:00\nSo 10:00 Feld-Gottesdienst mit dem Gropius-Chor", "lat": "52.4321434", "tel": "604 18 19", "id": "188"}, {"website": "www.britzer-garten.de", "fax": "70 09 06 70", "fee": "Eintritt 3 \u20ac, erm\u00e4\u00dfigt 1,50 \u20ac", "from": "17.05.2015", "name": "Feenfest im Britzer Garten im Rhododendronhain", "zip": "12347", "lon": "13.4121095", "mail": "", "comments": "", "county": "Neuk\u00f6lln", "to": "17.05.2015", "host": "Gr\u00fcn Berlin Gmbh", "location": "Mohriner Allee/Buckower Damm/Tauernallee/Sangerhauser Weg", "time": "14:00-18:00", "lat": "52.4391126", "tel": "70 09 06 80", "id": "190"}, {"website": "", "fax": "629 88 79 10", "fee": "K.A.", "from": "30.05.2015", "name": "Sommerliches Kiezfest in der Emser Stra\u00dfe", "zip": "12051", "lon": "13.4352203", "mail": "team@qm-koernerpark.de", "comments": "", "county": "Neuk\u00f6lln", "to": "30.05.2015", "host": "Multikultureller Nachbarschaftsgarten Neuk\u00f6lln e. V. in Kooperation mit Hinter der Fassade e. V.", "location": "Schierker Stra\u00dfe zwischen Nogat- und Selkestra\u00dfe, Berlin-Neuk\u00f6lln", "time": "14:00-19:00", "lat": "52.4704772", "tel": "62 98 87 90", "id": "192"}, {"website": "www.praesenta-berlin.de", "fax": "65 76 35 69", "fee": "K.A.", "from": "05.06.2015", "name": "10. Winzerfest im Britzer Garten", "zip": "12349", "lon": "13.4096346", "mail": "info@praesenta-berlin.de", "comments": "", "county": "Neuk\u00f6lln", "to": "07.06.2015", "host": "PR\u00c4SENTA GmbH", "location": "Berlin-Britz, Eingang Sangerhauser Weg", "time": "12:00-21:00", "lat": "52.4299462", "tel": "65 76 35 60", "id": "194"}, {"website": "", "fax": "52 64 66 90", "fee": "Eintritt frei", "from": "06.06.2015", "name": "8. Britzer Buschrosenfest", "zip": "12347", "lon": "13.4393398", "mail": "info@juettner-entertainment.de", "comments": "", "county": "Neuk\u00f6lln", "to": "07.06.2015", "host": "J\u00fcttner Entertainment, Christian J\u00fcttner", "location": "Buschrosensteig", "time": "K.A.", "lat": "52.4553299", "tel": "52 64 66 89", "id": "196"}, {"website": "www.dorfkirche.de", "fax": "605 19 06", "fee": "K.A.", "from": "13.06.2015", "name": "Dorfanger- und Kirchweihfest", "zip": "12349", "lon": "13.4285763", "mail": "buero@dorfkirche.de", "comments": "", "county": "Neuk\u00f6lln", "to": "14.06.2015", "host": "Evangelische Kirchengemeinde Alt-Buckow", "location": "an der Dorfkirche Alt-Buckow", "time": "Sa 14:00-20:00\nSo 13:00-19:00", "lat": "52.4210356", "tel": "10/10/0604", "id": "198"}, {"website": "www.dorfteichfest.de", "fax": "34 35 98 73", "fee": "Eintritt frei", "from": "13.06.2015", "name": "18. Alt-Buckower Dorfteichfest", "zip": "12349", "lon": "13.4285763", "mail": "", "comments": "", "county": "Neuk\u00f6lln", "to": "14.06.2015", "host": "AG \"Das sympathische Buckow e. V.\", Ansprechpartner: Christian Rieth", "location": "Alt-Buckow 2 - 38", "time": "Sa 11:00-21:00\nSo 10:00-19:00\nmit Gottesdienst", "lat": "52.4210356", "tel": "0179/394 55 14", "id": "200"}, {"website": "www.britzer-garten.de", "fax": "70 09 06 70", "fee": "Eintritt 5 \u20ac, erm\u00e4\u00dfigt 2,50 \u20ac", "from": "27.06.2015", "name": "Geburtstags- und Sonnenwendfest im Britzer Garten mit gro\u00dfem Abschlussfeuerwerk", "zip": "12349", "lon": "13.4162405497744", "mail": "", "comments": "", "county": "Neuk\u00f6lln", "to": "27.06.2015", "host": "Gr\u00fcn Berlin GmbH", "location": "Im gesamten Park, Mohriner Allee/Buckower Damm/Tauernallee/Sangerhauser Weg", "time": "13:00-23:00", "lat": "52.43305585", "tel": "70 09 06 80", "id": "202"}, {"website": "www.fetedelamusique.de", "fax": "", "fee": "Eintritt frei", "from": "21.06.2015", "name": "21. F\u00eate de la Musique", "zip": "", "lon": "13.4353501", "mail": "hallo@fetedelamusique.de", "comments": "Veranstaltungsorte und Uhrzeiten: siehe gesondertes Verzeichnis", "county": "Neuk\u00f6lln", "to": "21.06.2015", "host": "F\u00eate Company", "location": "", "time": "14:00-22:00", "lat": "52.4811497", "tel": "+49-30- 417 15 289", "id": "204"}, {"website": "www.j\u00fcttner-entertainment.de", "fax": "60 09 99 33", "fee": "Eintritt frei", "from": "04.07.2015", "name": "15. Britzer Rosenfest", "zip": "12359", "lon": "13.4377863", "mail": "info@juettner-entertainment.de", "comments": "", "county": "Neuk\u00f6lln", "to": "05.07.2015", "host": "DRK KV M\u00fcggelspree e. V.", "location": "Backbergstra\u00dfe Ecke Fulhamer Allee direkt am Schloss Britz", "time": "Sa 12:00-22:00\n(DRK Familientag)\nSo 10:00-20:00\n(Rosenfest)", "lat": "52.4474395", "tel": "600 99 90", "id": "206"}, {"website": "www.musikschule-paul-hindemith.de", "fax": "902 39 35 98", "fee": "K.A.", "from": "12.07.2015", "name": "Sommerfest der Musikschule - Tag der offenen T\u00fcr -, Gutshof Schloss Britz", "zip": "12359", "lon": "13.4377783969592", "mail": "", "comments": "", "county": "Neuk\u00f6lln", "to": "12.07.2015", "host": "Bezirksamt Neuk\u00f6lln von Berlin - Musikschule Paul Hindemith", "location": "Alt-Britz 81", "time": "Beginn 10:00\nEnde 18:00", "lat": "52.44596575", "tel": "902 39 32 66", "id": "208"}, {"website": "www.britzer-garten.de", "fax": "70 09 06 70", "fee": "Eintritt 2 \u20ac, erm\u00e4\u00dfigt 1 \u20ac", "from": "12.07.2015", "name": "Britz aktiv! - Sport- und Gesundheitsfest im Britzer Garten", "zip": "12347", "lon": "13.4121095", "mail": "", "comments": "", "county": "Neuk\u00f6lln", "to": "12.07.2015", "host": "Gr\u00fcn Berlin GmbH", "location": "Mohriner Allee/Buckower Damm/Tauernallee und Sangerhauser Weg", "time": "12:00-18:00", "lat": "52.4391126", "tel": "70 09 06 80", "id": "210"}, {"website": "www.daz-berlin.info", "fax": "56 82 66 58", "fee": "Eintritt frei", "from": "19.07.2015", "name": "Interkulturelles Ramadanfest-Ramazan Bayrami", "zip": "12043", "lon": "13.4376247378082", "mail": "daz@ejf.de", "comments": "", "county": "Neuk\u00f6lln", "to": "20.07.2015", "host": "Deutsch-Arabisches Zentrum f\u00fcr Bildung und Integration (DAZ)", "location": "Alfred-Scholz-Platz (Karl-Marx-Stra\u00dfe Ecke Ganghofstra\u00dfe)", "time": "13:00-22:00", "lat": "52.47919635", "tel": "56 82 66 48", "id": "212"}, {"website": "www.strohballenfest.de", "fax": "34 35 98 73", "fee": "Eintritt frei", "from": "14.08.2015", "name": "20. Buckower Strohballenfest bei Bauer Mette", "zip": "12353", "lon": "13.4342928", "mail": "post@bauer-mette.de", "comments": "", "county": "Neuk\u00f6lln", "to": "16.08.2015", "host": "Ansprechpartner Organisation und Ablauf: Christian Rieth", "location": "Buckower Damm/Gerlinger Stra\u00dfe auf freiem Feld", "time": "Fr ab 15:00\nSa ab 13:00\nSo ab 10:00", "lat": "52.4160517", "tel": "0179/394 55 14", "id": "214"}, {"website": "www.musikschule-paul-hindemith.de", "fax": "902 39 35 98", "fee": "K.A.", "from": "19.09.2015", "name": "Country & Folk Festival 2015", "zip": "12359", "lon": "13.4377783969592", "mail": "", "comments": "", "county": "Neuk\u00f6lln", "to": "19.09.2015", "host": "Bezirksamt Neuk\u00f6lln von Berlin - Musikschule Paul Hindemith", "location": "Gutshof Schloss Britz, Alt-Britz 81", "time": "13:00-20:00", "lat": "52.44596575", "tel": "902 39 32 66", "id": "216"}, {"website": "www.hier-in-rudow.de", "fax": "033055/212 91", "fee": "K.A.", "from": "05.09.2015", "name": "Rudower Meilenfest", "zip": "12357", "lon": "13.4918665", "mail": "ag-rudow@web.de", "comments": "", "county": "Neuk\u00f6lln", "to": "06.09.2015", "host": "AG Rudow e. V.", "location": "Stra\u00dfe Alt-Rudow", "time": "K.A.", "lat": "52.420438", "tel": "0163/676 31 64", "id": "218"}, {"website": "www.britzer-garten.de", "fax": "70 09 06 70", "fee": "Eintritt 3 \u20ac, erm\u00e4\u00dfigt 1,50 \u20ac", "from": "06.09.2015", "name": "Drehorgelfest im Britzer Garten am Festplatz", "zip": "12347", "lon": "13.4121095", "mail": "", "comments": "", "county": "Neuk\u00f6lln", "to": "06.09.2015", "host": "Gr\u00fcn Berlin GmbH", "location": "Mohriner Allee/Buckower Damm/Tauernallee/Sangerhauser Weg", "time": "12:00-18:00", "lat": "52.4391126", "tel": "70 09 06 80", "id": "220"}, {"website": "www.dorfkirche.de", "fax": "605 19 06", "fee": "K.A.", "from": "19.09.2015", "name": "Herbstfest an der Dorfkirche Alt-Buckow", "zip": "", "lon": "13.4353501", "mail": "buero@dorfkirche.de", "comments": "", "county": "Neuk\u00f6lln", "to": "19.09.2015", "host": "Evangelische Kirchengemeinde Alt-Buckow", "location": "", "time": "15:00-20:00", "lat": "52.4811497", "tel": "10/10/0604", "id": "222"}, {"website": "www.britzer-garten.de", "fax": "70 09 06 70", "fee": "Eintritt 3 \u20ac, erm\u00e4\u00dfigt 1,50 \u20ac", "from": "20.09.2015", "name": "6. Gro\u00dfes K\u00fcrbisfest im Britzer Garten", "zip": "12347", "lon": "13.4121095", "mail": "", "comments": "", "county": "Neuk\u00f6lln", "to": "20.09.2015", "host": "Gr\u00fcn Berlin GmbH", "location": "Mohriner Allee/Buckower Damm/Tauernallee/Sangerhauser Weg", "time": "12:00-18:00", "lat": "52.4391126", "tel": "70 09 06 80", "id": "224"}, {"website": "www.britzer-garten.de", "fax": "70 09 06 70", "fee": "Eintritt 3 \u20ac, erm\u00e4\u00dfigt 1,50 \u20ac, Jahreskartenbesitzer frei", "from": "11.10.2015", "name": "\"Luftikus\" - Luft-, Flug- und Drachenfest im Britzer Garten", "zip": "12347", "lon": "13.4121095", "mail": "", "comments": "", "county": "Neuk\u00f6lln", "to": "11.10.2015", "host": "Gr\u00fcn Berlin GmbH", "location": "Mohriner Allee/Buckower Damm/Tauernallee/Sangerhauser Weg", "time": "11:00-17:00", "lat": "52.4391126", "tel": "70 09 06 80", "id": "226"}, {"website": "www.milchhof-mendler.de", "fax": "", "fee": "Eintritt frei", "from": "05.04.2015", "name": "Familienfest mit Osterfeuer auf dem Milchhof Mendler", "zip": "12355", "lon": "13.5184591", "mail": "", "comments": "", "county": "Neuk\u00f6lln", "to": "05.04.2015", "host": "Bauer Mendler", "location": "Lettberger Str. 94, Rudow", "time": "10:00-24:00", "lat": "52.4107485", "tel": "663 40 44", "id": "634"}, {"website": "www.tourismus-neuruppin.de", "fax": "03391/45 46 66", "fee": "K.A.", "from": "01.05.2015", "name": "Mai- und Hafenfest", "zip": "16816", "lon": "12.8069817201997", "mail": "info@tourismus-neuruppin.de", "comments": "", "county": "Neuruppin", "to": "03.05.2015", "host": "Kontakt: Tourismus-Service B\u00fcrgerBahnhof GmbH", "location": "Festgel\u00e4nde am Ruppiner See mit Klosterkirche und Bollwerk", "time": "01.05. ab 09:00\n02.05. ab 08:00\n03.05. ab 10:00", "lat": "52.8985975", "tel": "03391/45 46 0", "id": "468"}, {"website": "www.tourismus-neuruppin.de", "fax": "03391/45 46 66", "fee": "K.A.", "from": "30.10.2015", "name": "360. Neuruppiner Martinimarkt", "zip": "16816", "lon": "12.8053026832349", "mail": "info@tourismus-neuruppin.de", "comments": "", "county": "Neuruppin", "to": "08.11.2015", "host": "Kontakt: Tourismus-Service B\u00fcrgerBahnhof GmbH", "location": "Schulplatz Neuruppin", "time": "30.10. Beginn 18:00, alle anderen Tage Beginn: 14:00", "lat": "52.9248323", "tel": "03391/45 46 0", "id": "622"}, {"website": "http://www.kraemer-forst.de/texte/seite.php?id=145611", "fax": "", "fee": "2\u20ac", "from": "25.04.2015", "name": "Kr\u00e4merwaldfest", "zip": "16727", "lon": "13.114711", "mail": "TIP@Kremmen.de", "comments": "", "county": "Oberkr\u00e4mer", "to": "25.04.2015", "host": "Info: Touristinformation Kremmen", "location": "Oberkr\u00e4mer", "time": "11:00 - 18:00", "lat": "52.7033727", "tel": "033055/211 61", "id": "454"}, {"website": "", "fax": "", "fee": "K.A.", "from": "19.09.2015", "name": "200 Jahre Bockwindm\u00fchle Vehlefanz", "zip": "16727", "lon": "13.0994509", "mail": "TIP@Kremmen.de", "comments": "", "county": "Oberkr\u00e4mer", "to": "19.09.2015", "host": "Info: Touristinformation Kremmen", "location": "Oberkr\u00e4mer OT Vehlefanz", "time": "11:00 - 17:00", "lat": "52.7190303", "tel": "033055/211 61", "id": "570"}, {"website": "www.oranienburg-erleben.de", "fax": "03301/60 08 39", "fee": "K.A.", "from": "11.04.2015", "name": " - Highlandgames Oranienburg - historisches Spektakel mit Kelten, Wikingern, Gauklern und Musikanten", "zip": "16515", "lon": "13.2306669", "mail": "info@oranienburg-erleben.de", "comments": "", "county": "Oranienburg", "to": "12.04.2015", "host": "TKO gGmbH in Kooperation mit dem Verein f\u00fcr Brauchtumspflege Mecklenburg-Vorpommern e. V. und Lowlander e. V.", "location": "Schlosspark", "time": "Sa 10:00-22:00\nSo 10:00-18:00", "lat": "52.752699", "tel": "03301/60 08 30", "id": "438"}, {"website": "www.oranienburg-erleben.de", "fax": "03301/60 08 39", "fee": "K.A.", "from": "26.04.2015", "name": "Orangefest - Oranienburg feiert seine niederl\u00e4ndischen Wurzeln", "zip": "16515", "lon": "13.2366628257898", "mail": "info@oranienburg-erleben.de", "comments": "", "county": "Oranienburg", "to": "26.04.2015", "host": "Stiftung Preu\u00dfische Schl\u00f6sser und G\u00e4rten, Stadt Oranienburg, Landkreis Oberhavel und TKO gGmbH", "location": "Schloss und Schlosspark Oranienburg", "time": "10:00-18:00", "lat": "52.75481415", "tel": "03301/60 08 30", "id": "460"}, {"website": "www.oranienburg-erleben.de", "fax": "03301/60 08 39", "fee": "K.A.", "from": "09.05.2015", "name": "Hafenfest mit Shanty-Chor-Festival - Er\u00f6ffnung der Wassersportsaison", "zip": "16515", "lon": "13.2360488004003", "mail": "info@oranienburg-erleben.de", "comments": "", "county": "Oranienburg", "to": "09.05.2015", "host": "TKO gGmbH", "location": "Schlosshafen", "time": "10:00-16:00", "lat": "52.75848365", "tel": "03301/60 08 30", "id": "472"}, {"website": "www.oranienburg-erleben.de", "fax": "03301/60 08 39", "fee": "K.A.", "from": "14.05.2015", "name": "Spielefest - mit historischen XXL-Holzgartenspielen der \"Spiel- und Erlebniswelten\" J\u00fcrgen Hohenwald", "zip": "16515", "lon": "13.2306669", "mail": "info@oranienburg-erleben.de", "comments": "", "county": "Oranienburg", "to": "14.05.2015", "host": "TKO gGmbH", "location": "Schlosspark Oranienburg", "time": "ab 10:00", "lat": "52.752699", "tel": "03301/60 08 30", "id": "476"}, {"website": "www.oranienburg-erleben.de", "fax": "03301/60 08 39", "fee": "K.A.", "from": "30.05.2015", "name": "3. Rhinland Spargellauf - \"Gutes vom Land - selbst errannt!\"", "zip": "16515", "lon": "13.2365824", "mail": "info@oranienburg-erleben.de", "comments": "", "county": "Oranienburg", "to": "30.05.2015", "host": "TKO gGmbH, Team OHV e. V., Spargelhof Kremmen", "location": "Treffpunkt Schlossplatz", "time": "9:30", "lat": "52.7537819", "tel": "03301/60 08 30", "id": "486"}, {"website": "www.carnica-spectaculi.de", "fax": "033602/29 64", "fee": "Eintritt Erwachsene 6 \u20ac (3-Tageskarte 10 \u20ac), Kinder bis 5 Jahre frei, Kinder 6 - 16 Jahre 4 \u20ac (6 \u20ac) , Sch\u00fcler, Studenten, gewandete G\u00e4ste 5 \u20ac (9 \u20ac) , Familie 15 \u20ac (2 Erwachsene mit eigenen Kindern bis 16 Jahre) (20 \u20ac)", "from": "23.05.2015", "name": "6. Ritterfest auf dem Schloss Oranienburg - Historischer Markt, Ritterturnier am Boden, Musik & Show", "zip": "16515", "lon": "13.2366628257898", "mail": "post@carnica.de", "comments": "", "county": "Oranienburg", "to": "25.05.2015", "host": "Carnica Historische Feste & M\u00e4rkte", "location": "Schloss Oranienburg", "time": "10:00-19:00", "lat": "52.75481415", "tel": "0171/515 32 70", "id": "498"}, {"website": "www.oranienburg-erleben.de", "fax": "03301/60 08 39", "fee": "K.A.", "from": "12.06.2015", "name": "Stadtfest mit Drachenbootrennen", "zip": "16515", "lon": "13.2457591", "mail": "info@oranienburg-erleben.de", "comments": "", "county": "Oranienburg", "to": "14.06.2015", "host": "Stadt Oranienburg, Organisation & Durchf\u00fchrung: TKO gGmbH", "location": "Innenstadt, Bollwerk", "time": "ab Fr 18:00", "lat": "52.7529379", "tel": "03301/60 08 30", "id": "506"}, {"website": "www.oranienburg-erleben.de", "fax": "03301/60 08 39", "fee": "K.A.", "from": "08.08.2015", "name": "Schlosspark-Nacht", "zip": "16515", "lon": "13.2306669", "mail": "info@oranienburg-erleben.de", "comments": "Zauberhafte Parkillumination, Livemusik und Showacts f\u00fcr die ganze Familie sowie Feuerwerk", "county": "Oranienburg", "to": "08.08.2015", "host": "TKO gGmbH", "location": "Schlosspark Oranienburg", "time": "18:00-24:00", "lat": "52.752699", "tel": "03301/60 08 30", "id": "540"}, {"website": "www.oranienburg-erleben.de", "fax": "03301/60 08 39", "fee": "K.A.", "from": "29.08.2015", "name": "Zuckert\u00fctenfest", "zip": "16515", "lon": "13.2306669", "mail": "info@oranienburg-erleben.de", "comments": "buntes Programm f\u00fcr alle Abc-Sch\u00fctzen und ihre Familien", "county": "Oranienburg", "to": "29.08.2015", "host": "TKO gGmbH", "location": "Schlosspark Oranienburg", "time": "10:00-17:00", "lat": "52.752699", "tel": "03301/60 08 30", "id": "548"}, {"website": "www.oranienburg-erleben.de", "fax": "03301/60 08 39", "fee": "K.A.", "from": "06.09.2015", "name": "Oldtimertreffen - motorisierte Schmuckst\u00fccke bis Baujahr 1985", "zip": "16515", "lon": "13.2306669", "mail": "info@oranienburg-erleben.de", "comments": "", "county": "Oranienburg", "to": "06.09.2015", "host": "Oldtimer-Club Oberhavel e. V. und K\u00e4fer-Club Oranienburg e. V., Info: TKO gGmbH", "location": "Schlosspark Oranienburg", "time": "10:00-16:00", "lat": "52.752699", "tel": "03301/60 08 30", "id": "572"}, {"website": "www.oranienburg-erleben.de", "fax": "03301/60 08 39", "fee": "K.A.", "from": "19.09.2015", "name": "5. Historisches Apfelfest im Schlosspark Oranienburg - alles rund um den Apfel mit historischem Spektakel", "zip": "16515", "lon": "13.2306669", "mail": "info@oranienburg-erleben.de", "comments": "", "county": "Oranienburg", "to": "20.09.2015", "host": "Verein f\u00fcr Brauchtumspflege Mecklenburg-Vorpommern e. V. und TKO gGmbH", "location": "Schlosspark Oranienburg", "time": "ab 10:00", "lat": "52.752699", "tel": "03301/60 08 30", "id": "588"}, {"website": "www.oranienburg-erleben.de", "fax": "03301/60 08 39", "fee": "K.A.", "from": "26.09.2015", "name": "4. Oranienburger Regionalmarkt - mehr als 100 H\u00e4ndler bieten ihre regionalen Produkte zum Kauf an, inkl. buntem Rahmenprogramm", "zip": "16515", "lon": "13.2365824", "mail": "info@oranienburg-erleben.de", "comments": "", "county": "Oranienburg", "to": "27.09.2015", "host": "Stadt Oranienburg, Tourismusverein Oranienburg und Umland, TKO gGmbH", "location": "Schlossplatz und Schlosspark Oranienburg", "time": "ab 10:00", "lat": "52.7537819", "tel": "03301/60 08 30", "id": "594"}, {"website": "www.carnica-spectaculi.de", "fax": "033602/29 64", "fee": "Eintritt Erwachsene 6 \u20ac, Kinder 6 - 16 Jahre 4 \u20ac, Sch\u00fcler, Studenten, Gewandete 5 \u20ac, Kinder bis 5 Jahre frei, Familie 15 \u20ac (2 Erwachsene mit eigenen Kindern bis 16 Jahre)", "from": "03.10.2015", "name": "6. Gaukler-Schlossfest auf dem Schloss - Historischer Gauklermarkt, Gaukler-Shows, Gaukler-Musik & Gaukler-M\u00e4rchen", "zip": "16515", "lon": "13.2366628257898", "mail": "post@carnica.de", "comments": "", "county": "Oranienburg", "to": "04.10.2015", "host": "Carnica Historische Feste & M\u00e4rkte", "location": "Schloss Oranienburg", "time": "10:00-19:00", "lat": "52.75481415", "tel": "0171/515 32 70", "id": "604"}, {"website": "www.kinderbauernhof-pinke-panke.de", "fax": "40 04 70 03", "fee": "K.A.", "from": "22.03.2015", "name": "Fr\u00fchlingsfest auf dem Kinderbauernhof Pinke-Panke", "zip": "13156", "lon": "13.3887412", "mail": "", "comments": "", "county": "Pankow", "to": "22.03.2015", "host": "Kinderbauernhof Pinke-Panke", "location": "Am B\u00fcrgerpark 15 - 18, S-Bahnhof Wollankstra\u00dfe", "time": "14:00-18:00", "lat": "52.5689882", "tel": "47 55 25 93", "id": "228"}, {"website": "www.gesobau.de", "fax": "40 73 21 01", "fee": "K.A.", "from": "13.06.2015", "name": "Kunstfest im Schlosspark Sch\u00f6nhausen", "zip": "13156", "lon": "13.4063999", "mail": "solveig.beck@gesobau.de", "comments": "", "county": "Pankow", "to": "14.06.2015", "host": "GESOBAU AG, Kontakt: Frau Solveig Beck", "location": "Ossietzkystr. 44/45", "time": "12:00-22:00", "lat": "52.5764024", "tel": "40 73 24 39", "id": "230"}, {"website": "www.wollenschlaeger-berlin.de", "fax": "03322/423 41 39", "fee": "K.A.", "from": "05.06.2015", "name": "Buchholzer Festtage", "zip": "", "lon": "13.4281104", "mail": "info@wollenschlaeger-berlin.de", "comments": "", "county": "Pankow", "to": "07.06.2015", "host": "Schaustellerbetrieb Thilo-Harry Wollenschlaeger", "location": "Franz\u00f6sisch Buchholz", "time": "ab Fr 18:00", "lat": "52.6105131", "tel": "0163/400 05 00", "id": "232"}, {"website": "www.fetedelamusique.de", "fax": "", "fee": "Eintritt frei", "from": "21.06.2015", "name": "21. F\u00eate de la Musique", "zip": "", "lon": "13.4363598782402", "mail": "hallo@fetedelamusique.de", "comments": "Veranstaltungsorte und Uhrzeiten: siehe gesondertes Verzeichnis", "county": "Pankow", "to": "21.06.2015", "host": "F\u00eate Company, Wallstr. 15a, 10179 Berlin", "location": "", "time": "", "lat": "52.597811", "tel": "", "id": "234"}, {"website": "", "fax": "77 20 32 18", "fee": "K.A.", "from": "10.07.2015", "name": "Parkfest Weissensee", "zip": "", "lon": "13.4629611", "mail": "buergerbuero@dirk-stettner.de", "comments": "", "county": "Pankow", "to": "12.07.2015", "host": "Verein f\u00fcr Wei\u00dfensee e. V., c/o Dirk Stettner", "location": "Volksfest im Park am Wei\u00dfen See an der Gro\u00dfen Seestra\u00dfe", "time": "Fr 16:00-22:00\nSa 11:00-23:00\nSo 11:00-22:00", "lat": "52.5548051", "tel": "45 97 69 95", "id": "236"}, {"website": "www.pfefferwerk.de", "fax": "44 38 31 00", "fee": "K.A.", "from": "05.09.2015", "name": "Kiezfest", "zip": "10119", "lon": "13.4096576", "mail": "weiland@pfefferwerk.de", "comments": "", "county": "Pankow", "to": "05.09.2015", "host": "Pfefferwerk Stadtkultur gGmbH", "location": "Prenzlauer Berg / Fehrbelliner Stra\u00dfe", "time": "16:00-22:00", "lat": "52.5309923", "tel": "44 38 34 40", "id": "238"}, {"website": "www.laubinger.de", "fax": "033439/14 34 92", "fee": "K.A.", "from": "12.09.2015", "name": "46. Fest an der Panke", "zip": "13187", "lon": "13.4095179", "mail": "info@laubinger.de", "comments": "gro\u00dfes Stra\u00dfenfest mit K\u00fcnstlerboulevard, teilnehmenden K\u00fcnstlern, Info- und Sozialmarkt, Lampionumzug, gro\u00dfes B\u00fchnenprogramm", "county": "Pankow", "to": "13.09.2015", "host": "LAUBINGER Veranstaltungsagentur", "location": "Breite Stra\u00dfe beidseitig, auf dem Anger und in der Ossietzkystra\u00dfe", "time": "K.A.", "lat": "52.5710556", "tel": "033439/14 34 90", "id": "240"}, {"website": "www.laubinger.de", "fax": "033439/14 34 92", "fee": "K.A.", "from": "18.09.2015", "name": "42. Rosenthaler Herbst mit gro\u00dfem Festumzug", "zip": "13127", "lon": "13.4314134", "mail": "info@laubinger.de", "comments": "traditionelles Erntedankfest mit Festumzug, Lampionumzug, H\u00f6henfeuerwerk, B\u00fchnenprogramm, Vereinsmeile,  www.bv-rosenthal.de", "county": "Pankow", "to": "20.09.2015", "host": "B\u00fcrgerverein Rosenthal", "location": "Rosenthal - Dorfaue zwischen Landhaus und Kirche", "time": "K.A.", "lat": "52.6025792", "tel": "05171/58 95 92", "id": "242"}, {"website": "www.praesenta-berlin.de", "fax": "65 76 35 69", "fee": "K.A.", "from": "23.10.2015", "name": "23. Winzerfest in Pankow", "zip": "13187", "lon": "13.4065769", "mail": "info@praesenta-berlin.de", "comments": "", "county": "Pankow", "to": "25.10.2015", "host": "PR\u00c4SENTA GmbH", "location": "Marktplatz/Breite Stra\u00dfe", "time": "Fr 13:00-21:00\nSa 11:00-21:00\nSo 11:00-19:00", "lat": "52.5701146", "tel": "65 76 35 60", "id": "244"}, {"website": "www.schiffahrt-in-potsdam.de", "fax": "0331/29 10 90", "fee": "Eintritt frei", "from": "19.04.2015", "name": "9. Hafenfest zur Flottenparade", "zip": "14473", "lon": "13.0629003", "mail": "wf@schiffahrt-in-potsdam.de", "comments": "", "county": "Potsdam", "to": "19.04.2015", "host": "Info: Wei\u00dfe Flotte Potsdam GmbH", "location": "Hafen Potsdam, An der Langen Br\u00fccke", "time": "Beginn 11:00", "lat": "52.3926024", "tel": "0331/275 92 10/20/30", "id": "440"}, {"website": "www.schiffahrt-in-potsdam.de", "fax": "0331/29 10 90", "fee": "K.A.", "from": "19.04.2015", "name": "57. Potsdamer Flottenparade", "zip": "14473", "lon": "13.0629003", "mail": "wf@schiffahrt-in-potsdam.de", "comments": "wf@schiffahrt-in-potsdam.de", "county": "Potsdam", "to": "19.04.2015", "host": "Info: Wei\u00dfe Flotte Potsdam GmbH", "location": "Hafen Potsdam, An der Langen Br\u00fccke", "time": "Beginn 15:00", "lat": "52.3926024", "tel": "0331/275 92 10/20/30", "id": "442"}, {"website": "www.krongut-bornstedt.de", "fax": "0331/550 65 15", "fee": "Eintritt 2 \u20ac, erm\u00e4\u00dfigt 1 \u20ac", "from": "04.04.2015", "name": "Ostern mit Ostermarkt", "zip": "14469", "lon": "13.0309044", "mail": "", "comments": "", "county": "Potsdam", "to": "06.04.2015", "host": "Krongut Bornstedt, Potsdam, Ribbeckstr. 6 - 7", "location": "Krongut Bornstedt", "time": "ab 11:00", "lat": "52.408314", "tel": "0331/55 06 50", "id": "444"}, {"website": "www.krongut-bornstedt.de", "fax": "0331/550 65 15", "fee": "Eintritt 2 \u20ac, erm\u00e4\u00dfigt 1 \u20ac", "from": "01.05.2015", "name": "Maibaumfest", "zip": "14469", "lon": "13.0309044", "mail": "", "comments": "", "county": "Potsdam", "to": "01.05.2015", "host": "Krongut Bornstedt, Potsdam, Ribbeckstr. 6 - 7", "location": "Krongut Bornstedt", "time": "ab 12:00", "lat": "52.408314", "tel": "0331/55 06 50", "id": "466"}, {"website": "www.krongut-bornstedt.de", "fax": "0331/550 65 15", "fee": "Eintritt frei", "from": "14.05.2015", "name": "Herrentag Christi Himmelfahrt", "zip": "14469", "lon": "13.0309044", "mail": "", "comments": "", "county": "Potsdam", "to": "14.05.2015", "host": "Krongut Bornstedt, Potsdam, Ribbeckstr. 6 - 7", "location": "Krongut Bornstedt", "time": "11:00-18:00", "lat": "52.408314", "tel": "0331/55 06 50", "id": "484"}, {"website": "www.cocolorus-diaboli.de", "fax": "039826/134 24", "fee": "Eintritt", "from": "23.05.2015", "name": "11. Ritterfest", "zip": "14469", "lon": "13.045945", "mail": "cocolorus@t-online.de", "comments": "", "county": "Potsdam", "to": "25.05.2015", "host": "Wandertheater Cocolorus Budenzauber, Brauchtumspflege Mecklenburg-Vorpommern e. V., Dietmar Frick", "location": "Gro\u00dfer Wiesenpark, Volkspark Potsdam", "time": "10:00-20:00", "lat": "52.4179421", "tel": "039826/134 20", "id": "496"}, {"website": "www.krongut-bornstedt.de", "fax": "0331/550 65 15", "fee": "Eintritt 2 \u20ac, erm\u00e4\u00dfigt 1 \u20ac", "from": "23.05.2015", "name": "Pfingsten auf dem Krongut", "zip": "14469", "lon": "13.0309044", "mail": "", "comments": "", "county": "Potsdam", "to": "25.05.2015", "host": "Krongut Bornstedt, Potsdam, Ribbeckstr. 6 - 7", "location": "Krongut Bornstedt", "time": "ab 11:00", "lat": "52.408314", "tel": "0331/55 06 50", "id": "500"}, {"website": "www.swp-potsdam.de", "fax": "0331/661 10 03", "fee": "K.A.", "from": "03.07.2015", "name": "15. Stadtwerkefest Potsdam", "zip": "14467", "lon": "13.0579974654142", "mail": "info@swp-potsdam.de", "comments": "", "county": "Potsdam", "to": "05.07.2015", "host": "Stadtwerke Potsdam, Steinstr. 101, 14480 Potsdam", "location": "Neuer Lustgarten, Breite Stra\u00dfe", "time": "ab Fr 20:00", "lat": "52.3940941", "tel": "0331/661 10 00", "id": "520"}, {"website": "www.potsdamer-erlebnisnacht.de", "fax": "", "fee": "Eintritt frei", "from": "25.07.2015", "name": "11. Potsdamer Erlebnisnacht \"Potsdam mit allen Sinnen erleben!\"", "zip": "14467", "lon": "13.0600275", "mail": "", "comments": "", "county": "Potsdam", "to": "25.07.2015", "host": "P3 Projekt GmbH", "location": "Innenstadt", "time": "15:00-01:00", "lat": "52.3973883", "tel": "0177/279 02 86", "id": "534"}, {"website": "www.volkspark-potsdam.de", "fax": "0331/620 64 29", "fee": "Erwachsene 18 \u20ac, Kind 7 - 16 Jahre 10 \u20ac", "from": "16.07.2015", "name": "14. Potsdamer Feuerwerkersinfonie", "zip": "", "lon": "13.045945", "mail": "volkspark@propotsdam.de", "comments": "", "county": "Potsdam", "to": "17.07.2015", "host": "ProPotsdam, Volkspark Potsdam", "location": "Gro\u00dfer Wiesenpark, Volkspark Potsdam", "time": "Einlass ab 18:00", "lat": "52.4179421", "tel": "0331/620 67 77", "id": "536"}, {"website": "", "fax": "", "fee": "K.A.", "from": "05.09.2015", "name": "24. T\u00f6pfermarkt Potsdam", "zip": "14467", "lon": "13.0605518", "mail": "QuartierEvents@gmx.de", "comments": "", "county": "Potsdam", "to": "06.09.2015", "host": "Quartier Events", "location": "im Holl\u00e4ndischen Viertel", "time": "Sa 10:00-19:00\nSo 11:00-18:00", "lat": "52.402994", "tel": "", "id": "568"}, {"website": "www.volkspark-potsdam.de", "fax": "0331/620 64 29", "fee": "Eintritt Erwachsene 5 \u20ac, Kinder 7 - 16 Jahre 2,50 \u20ac, Kinder bis 6 Jahre frei, Familienticket 12 \u20ac (Eltern und deren nicht vollj\u00e4hrige Kinder)", "from": "19.09.2015", "name": "Internationales Drachenfest", "zip": "", "lon": "13.045945", "mail": "volkspark@propotsdam.de", "comments": "", "county": "Potsdam", "to": "20.09.2015", "host": "ProPotsdam, Volkspark Potsdam", "location": "Gro\u00dfer Wiesenpark, Volkspark Potsdam", "time": "13:00-18:00\n", "lat": "52.4179421", "tel": "0331/620 67 77", "id": "590"}, {"website": "www.cocolorus-diaboli.de", "fax": "039826/134 24", "fee": "Erwachsene 6 Euro, Kinder 7-16 Jahre 3 Euro, Kinder bis 6 Jahre frei.", "from": "03.10.2015", "name": "10. Historisches Apfelfest im BUGA-Volkspark", "zip": "14469", "lon": "13.045945", "mail": "cocolorus@t-online.de", "comments": "", "county": "Potsdam", "to": "04.10.2015", "host": "Wandertheater Cocolorus Budenzauber, Brauchtumspflege Mecklenburg-Vorpommern e. V., Dietmar Frick", "location": "Gro\u00dfer Wiesenpark, Volkspark Potsdam", "time": "10:00-22:00", "lat": "52.4179421", "tel": "Ze039826/134 20", "id": "608"}, {"website": "www.volkspark-potsdam.de", "fax": "0331/620 64 29", "fee": "Eintritt Erwachsene 4 \u20ac, Kinder 7 - 16 Jahre 2 \u20ac, Kinder bis 6 Jahre frei", "from": "11.10.2015", "name": "Herbstfest", "zip": "", "lon": "13.045945", "mail": "volkspark@propotsdam.de", "comments": "", "county": "Potsdam", "to": "11.10.2015", "host": "ProPotsdam, Volkspark Potsdam", "location": "Gro\u00dfer Wiesenpark, Volkspark Potsdam", "time": "13:00-18:00", "lat": "52.4179421", "tel": "0331/620 67 77", "id": "612"}, {"website": "www.volkspark-potsdam.de", "fax": "0331/620 64 29", "fee": "Parkeintritt", "from": "11.11.2015", "name": "St. Martinsfest", "zip": "", "lon": "13.045945", "mail": "volkspark@potsdam.de", "comments": "", "county": "Potsdam", "to": "11.11.2015", "host": "ProPotsdam, Volkspark Potsdam", "location": "Gro\u00dfer Wiesenpark, Volkspark Potsdam", "time": "15:00-18:00", "lat": "52.4179421", "tel": "0331/620 67 77", "id": "628"}, {"website": "www.kunsthand-berlin.de", "fax": "401 74 40", "fee": "K.A.", "from": "09.05.2015", "name": "12. Gartenlust & Kunstgenuss Frohnau - Zentrum der Gartenstadt Frohnau", "zip": "13465", "lon": "13.288008", "mail": "info@kunsthand-berlin.de", "comments": "", "county": "Reinickendorf", "to": "10.05.2015", "host": "Interessengemeinschaft Frohnauer Gesch\u00e4fte - IFG, Kontakt: Cornelja Hasler, Kunsthand-Berlin", "location": "Ludolfingerplatz/Zeltinger Platz u. a.", "time": "11:00-18:00", "lat": "52.632869", "tel": "40 63 70 31", "id": "246"}, {"website": "www.catering-company-berlin.de", "fax": "28 59 81 40", "fee": "K.A.", "from": "14.05.2015", "name": "32. Internationaler Kulturlustgarten", "zip": "13437", "lon": "13.3301500349651", "mail": "cateringcompany@email.de", "comments": "Freitag Abend H\u00f6henfeuerwerk", "county": "Reinickendorf", "to": "17.05.2015", "host": "Catering Company GmbH, Herr Arzig", "location": "Volkspark Wittenau", "time": "K.A", "lat": "52.59552935", "tel": "282 21 84, 0170/222 1220", "id": "248"}, {"website": "www.gesobau.de", "fax": "40 73 13 28", "fee": "K.A.", "from": "24.05.2015", "name": "9. Pfingstkonzert der GESOBAU - Festwiese am Seggeluchbecken", "zip": "13435", "lon": "13.3487345", "mail": "petra.taraboulsi@gesobau.de", "comments": "", "county": "Reinickendorf", "to": "24.05.2015", "host": "GESOBAU AG, Kontakt: Petra Taraboulsi", "location": "Finsterwalder Stra\u00dfe Ecke Calauer Stra\u00dfe (M\u00e4rkisches Viertel)", "time": "10:00-13:00", "lat": "52.6064148", "tel": "40 73 13 36", "id": "250"}, {"website": "www.berlin.de/ba-reinickendorf.de", "fax": "902 94 66 69", "fee": "K.A.", "from": "27.06.2015", "name": "Kinder- und Familienfest", "zip": "13437", "lon": "13.3226947", "mail": "Jugendamt-nord@reinickendorf.berlin.de", "comments": "", "county": "Reinickendorf", "to": "27.06.2015", "host": "Bezirksamt Reinickendorf, Abt. Jugend, Familie und Soziales Region Nord", "location": "Dorfaue Alt-Wittenau", "time": "13:00-17:30", "lat": "52.5927677", "tel": "902 94 60 08", "id": "252"}, {"website": "www.frohnau-berlin.de", "fax": "401 74 40", "fee": "K.A.", "from": "21.06.2015", "name": "5. Frohnauer Oldtimer-Treffen - Zentrum der Gartenstadt Frohnau", "zip": "13465", "lon": "13.2906103", "mail": "", "comments": "", "county": "Reinickendorf", "to": "21.06.2015", "host": "Interessengemeinschaft Frohnauer Gesch\u00e4fte - IFG, Kontakt: Cornelja Hasler, Kunsthand-Berlin", "location": "Zeltinger Platz, Ludolfingerplatz u. a.)", "time": "12:00-18:00", "lat": "52.6333479", "tel": "40 63 70 31", "id": "254"}, {"website": "http://www.twainweb.de", "fax": "413 68 30", "fee": "K.A.", "from": "13.06.2015", "name": "Kiezfest auf dem Gel\u00e4nde der Mark-Twain-Grundschule", "zip": "13403", "lon": "13.3267548023336", "mail": "schulleitung@vainmail.de", "comments": "", "county": "Reinickendorf", "to": "13.06.2015", "host": "Mark-Twain-Grundschule, Auguste-Viktoria-Allee 95, 13403 Berlin", "location": "Auguste-Viktoria-Allee 95", "time": "14.00 \u2013 18.00 Uhr", "lat": "52.5687773", "tel": "41 70 95 71", "id": "256"}, {"website": "www.fetedelamusique.de", "fax": "", "fee": "Eintritt frei", "from": "21.06.2015", "name": "21. F\u00eate de la Musique", "zip": "", "lon": "13.2952872", "mail": "hallo@fetedelamusique.de", "comments": "Veranstaltungsorte und Uhrzeiten: siehe gesondertes Verzeichnis", "county": "Reinickendorf", "to": "21.06.2015", "host": "F\u00eate Company, Wallstr. 15a, 10179 Berlin", "location": "", "time": "", "lat": "52.6047631", "tel": "", "id": "258"}, {"website": "www.catering-company-berlin.de", "fax": "28 59 81 40", "fee": "Eintritt frei", "from": "16.07.2015", "name": "6. Tegeler Hafenfest", "zip": "13507", "lon": "13.2725959", "mail": "cateringcompany@email.de", "comments": "Freitag Abend H\u00f6henfeuerwerk", "county": "Reinickendorf", "to": "19.07.2015", "host": "Catering Company GmbH, Herr Arzig", "location": "Greenwichpromenade", "time": "ab Do 15:00", "lat": "52.5892974", "tel": "282 21 84, 0170/222 1220", "id": "260"}, {"website": "www.catering-company-berlin.de", "fax": "28 59 81 40", "fee": "24,90 \u20ac", "from": "15.08.2015", "name": "4. Schlagerolymp", "zip": "13469", "lon": "13.3685323707732", "mail": "cateringcompany@email.de", "comments": "www.schlagerolymp.de", "county": "Reinickendorf", "to": "15.08.2015", "host": "Catering Company GmbH, Herr Arzig", "location": "Freizeit & Erholungspark L\u00fcbars, Quickborner Stra\u00dfe/Alte Fasanerie", "time": "14:00-24:00\nEinlass ab 12:00", "lat": "52.61078395", "tel": "282 21 84, 0170/222 1220", "id": "262"}, {"website": "www.catering-company-berlin.de", "fax": "28 59 81 40", "fee": "ab 15 \u20ac", "from": "22.08.2015", "name": "5. Pyrotalia 2015 (Feuerwerksshow), Strandbad L\u00fcbars", "zip": "13469", "lon": "13.3348962", "mail": "cateringcompany@email.de", "comments": "", "county": "Reinickendorf", "to": "22.08.2015", "host": "Catering Company GmbH, Herr Arzig", "location": "Am Freibad 9", "time": "ab 18:00", "lat": "52.6187725", "tel": "282 21 84, 0170/222 1220", "id": "264"}, {"website": "www.catering-company-berlin.de", "fax": "28 59 81 40", "fee": "ab 30 \u20ac", "from": "28.08.2015", "name": "Konzert mit Bernhard Brink & Band", "zip": "13469", "lon": "13.335382", "mail": "cateringcompany@email.de", "comments": "", "county": "Reinickendorf", "to": "28.08.2015", "host": "Catering Company GmbH, Herr Arzig", "location": "Strandbad L\u00fcbars", "time": "ab 20:00", "lat": "52.618156", "tel": "282 21 84, 0170/222 1220", "id": "266"}, {"website": "www.schaustellerverband-berlin.de", "fax": "213 40 34", "fee": "K.A.", "from": "21.08.2015", "name": "113. Freie Scholle", "zip": "13509", "lon": "13.3022736", "mail": "info@svbev.de", "comments": "mittwochs halbe Preise auf alle Karussells und Bahnen", "county": "Reinickendorf", "to": "06.09.2015", "host": "Schaustellerverband Berlin e. V.", "location": "Waidmannsluster Damm", "time": "t\u00e4glich ab 15:00\nSa, So ab 14:00", "lat": "52.6000674", "tel": "213 32 90 und 0172/300 6873", "id": "268"}, {"website": "www.gesobau.de", "fax": "40 73 13 28", "fee": "K.A.", "from": "04.07.2015", "name": "7. Kinderwiesenfest der GESOBAU - Festwiese am Seggeluchbecken", "zip": "13435", "lon": "13.3487345", "mail": "petra.taraboulsi@gesobau.de", "comments": "", "county": "Reinickendorf", "to": "04.07.2015", "host": "GESOBAU AG, Kontakt: Petra Taraboulsi", "location": "Finsterwalder Stra\u00dfe Ecke Calauer Stra\u00dfe (M\u00e4rkisches Viertel)", "time": "13:00-19:00", "lat": "52.6064148", "tel": "40 73 13 36, 40 7", "id": "270"}, {"website": "www.catering-company-berlin.de", "fax": "28 59 81 40", "fee": "27 Euro", "from": "29.08.2015", "name": "Rock meets Classic", "zip": "13469", "lon": "13.335382", "mail": "cateringcompany@email.de", "comments": "", "county": "Reinickendorf", "to": "29.08.2015", "host": "Catering Company GmbH, Herr Arzig", "location": "Standbad L\u00fcbars", "time": "ab 19:00", "lat": "52.618156", "tel": "282 21 84, 0170/222 1220", "id": "272"}, {"website": "", "fax": "", "fee": "K.A.", "from": "08.05.2015", "name": "11. Kiezfest am Sch\u00e4fersee", "zip": "13407", "lon": "13.3613976369309", "mail": "jugendamt-ost@reinickendorf.berlin.de", "comments": "", "county": "Reinickendorf", "to": "08.05.2015", "host": "Bezirksamt Reinickendorf von Berlin, Jugendamt Region Reinickendorf Ost", "location": "vor dem Haus am See", "time": "15:00-19:00", "lat": "52.56570155", "tel": "902 94 60 79", "id": "274"}, {"website": "www.kunsthand-berlin.de", "fax": "401 74 40", "fee": "Eintritt frei", "from": "12.09.2015", "name": "13. KUNST trifft HANDWERK Frohnau - Zentrum der Gartenstadt Frohnau", "zip": "13465", "lon": "13.288008", "mail": "info@kunsthand-berlin.de", "comments": "", "county": "Reinickendorf", "to": "13.09.2015", "host": "Interessengemeinschaft Frohnauer Gesch\u00e4fte - IFG, Kontakt: Cornelja Hasler, Kunsthand-Berlin", "location": "Ludolfingerplatz, Zeltinger Platz u. a.", "time": "11:00-18:00", "lat": "52.632869", "tel": "40 63 70 31", "id": "276"}, {"website": "www.cocolorus-diaboli.de", "fax": "039826/134 24", "fee": " Erwachsene 7 Euro, Kinder (6-14 Jahre) 3 Euro", "from": "29.05.2015", "name": "Viking Games Berlin - 9. Wikingerfest am Kiessee und Vikingmusic - Openair", "zip": "16552", "lon": "13.3770636", "mail": "cocolorus@t-online.de", "comments": "Der Eintritt gilt f\u00fcr das ganze Wochenende. Freitag Eintritt frei! (Abendkonzert mit dem Henri Stabel Quartett, Cocolorus Diaboli und Feuershow Araga Mysteria)", "county": "Schildow", "to": "31.05.2015", "host": "Wandertheater Cocolorus Budenzauber, Brauchtumspflege Mecklenburg-Vorpommern e. V., Dietmar Frick", "location": "Schildow", "time": "K.A.", "lat": "52.6355777", "tel": "039826/134 20", "id": "482"}, {"website": "www.mafz.de", "fax": "", "fee": "K.A.", "from": "18.04.2015", "name": "Havell\u00e4nder Familientag", "zip": "14621", "lon": "12.9830365464952", "mail": "", "comments": "", "county": "Sch\u00f6nwalde-Glien", "to": "18.04.2015", "host": "MAFZ M\u00e4rkische Ausstellungs- und Freizeitzentrum GmbH, Paaren", "location": "MAFZ Erlebnispark Paaren im Glien, Gartenstr. 1, Sch\u00f6nwalde-Glien", "time": "ab 12:00", "lat": "52.64960105", "tel": "033230/74 - 0", "id": "434"}, {"website": "www.fruehling.mafz.de", "fax": "", "fee": "K.A.", "from": "28.03.2015", "name": "Havell\u00e4nder Liedermarkt", "zip": "14621", "lon": "12.9830365464952", "mail": "", "comments": "", "county": "Sch\u00f6nwalde-Glien", "to": "29.03.2015", "host": "MAFZ M\u00e4rkische Ausstellungs- und Freizeitzentrum GmbH, Paaren", "location": "MAFZ Erlebnispark Paaren im Glien, Gartenstr. 1", "time": "ab 10:00", "lat": "52.64960105", "tel": "033230/74 - 0", "id": "436"}, {"website": "www.pferdesommer.mafz.de", "fax": "", "fee": "K.A.", "from": "22.08.2015", "name": "Brandenburger Pferdesommer", "zip": "14621", "lon": "12.9830365464952", "mail": "", "comments": "", "county": "Sch\u00f6nwalde-Glien", "to": "23.08.2015", "host": "MAFZ M\u00e4rkische Ausstellungs- und Freizeitzentrum GmbH, Paaren", "location": "MAFZ - Erlebnispark Paaren im Glien, Gartenstr. 1", "time": "ab 10:00", "lat": "52.64960105", "tel": "033230/74 - 0", "id": "550"}, {"website": "www.gemeinde-schoenwalde-glien.de", "fax": "033 22/24 84 40", "fee": "K.A.", "from": "12.09.2015", "name": "Brandenburger Erntefest & Kreiserntefest des Havellandes", "zip": "14621", "lon": "12.9830365464952", "mail": "hauptamt@gemeinde-schoenwalde-glien.de", "comments": "", "county": "Sch\u00f6nwalde-Glien", "to": "12.09.2015", "host": "Gemeinde Sch\u00f6nwalde-Glien Der B\u00fcrgermeister, Sch\u00f6nwalde-Siedlung, Berliner Allee 7, 14621 Sch\u00f6nwalde-Glien", "location": "MAFZ - Erlebnispark Paaren im Glien, Gartenstr. 1", "time": "ab 10:00", "lat": "52.64960105", "tel": "03322/24 84 10", "id": "574"}, {"website": "www.schoenwalde-glien.de", "fax": "", "fee": "K.A.", "from": "12.09.2015", "name": "Brandenburger Dorf- und Erntefest", "zip": "14621", "lon": "12.98126", "mail": "", "comments": "", "county": "Sch\u00f6nwalde-Glien", "to": "12.09.2015", "host": "Gemeinde Sch\u00f6nwalde-Glien", "location": "Dorfkern Paaren im Glien", "time": "K.A.", "lat": "52.6540075", "tel": "", "id": "580"}, {"website": "www.pyro-championat.de", "fax": "", "fee": "tehpl\u00e4tze: \nErwachsener ab 16 Jahre = 13,90 \u20ac \nKinder bis zum vollendeten \n6. Lebensjahr sind kostenfrei. \nKinder ab 7 Jahre = je 9,00 \u20ac\nSitz- und Trib\u00fcnenpl\u00e4tze - VIP \nVIP - Sitzplatz je Person inkl. Catering (\u00fcberdachter Sitzplatz, warm/kaltes Buffet sowie alkoholische (Bier, Wein, Prosecco) und nicht alkoholische Getr\u00e4nke = 48,50\u20ac \nVIP - Sitzplatz Kinder inkl. Catering wie vor = 29,50\u20ac\nDAS BESONDERE TICKET - MITTEN DRIN und NAH DABEI TICKET, \nGef\u00fchrte Besichtigung von 30 Minuten im Sicherheitssperrbereich k\u00f6nnen Sie den \nPyrotechnikern bei der Arbeit \u00fcber die Schulter schauen. \nKleine Gruppen gef\u00fchrt durch einen erfahrenen Pyrotechniker: \npro Person \u00e0 20,00 \u20ac zzgl. zum Eintrittspreis", "from": "26.09.2015", "name": "PYRO-World-Championat", "zip": "14621", "lon": "12.9830365464952", "mail": "", "comments": "", "county": "Sch\u00f6nwalde-Glien", "to": "26.09.2015", "host": "Pyro Light UG, Kurf\u00fcrstendamm 124, 10711 Berlin", "location": "MAFZ Erlebnispark Paaren im Glien, Gartenstr. 1", "time": "ab 16:00", "lat": "52.64960105", "tel": "68 40 88 80", "id": "596"}, {"website": "www.herbst.mafz.de", "fax": "", "fee": "K.A.", "from": "26.09.2015", "name": "Tag der Regionen mit Havell\u00e4nder Kartoffelmarkt & Arche-Haustierparkfest", "zip": "14621", "lon": "12.9830365464952", "mail": "", "comments": "", "county": "Sch\u00f6nwalde-Glien", "to": "27.09.2015", "host": "MAFZ M\u00e4rkische Ausstellungs- und Freizeitzentrum GmbH, Paaren", "location": "MAFZ Erlebnispark Paaren im Glien, Gartenstr. 1", "time": "ab 10:00", "lat": "52.64960105", "tel": "033230/74 - 0", "id": "598"}, {"website": "www.proagro.de", "fax": "", "fee": "K.A.", "from": "24.10.2015", "name": "Brandenburger Schlachtefest", "zip": "14621", "lon": "12.98126", "mail": "", "comments": "", "county": "Sch\u00f6nwalde-Glien", "to": "25.10.2015", "host": "Pro agro - Verband zur F\u00f6rderung des l\u00e4ndlichen Raumes im Land Brandenburg e. V., Dorfstr. 10, 14513 Teltow-Ruhlsdorf", "location": "Dorfkern Paaren im Glien", "time": "ab 10:00", "lat": "52.6540075", "tel": "03328/33 76 70", "id": "620"}, {"website": "", "fax": "", "fee": "K.A.", "from": "25.05.2015", "name": "Deutscher M\u00fchlentag Schwante", "zip": "16727", "lon": "13.0858311", "mail": "TIP@Kremmen.de", "comments": "", "county": "Schwante", "to": "25.05.2015", "host": "Info: Touristinformation Kremmen", "location": "Oberkr\u00e4mer", "time": "", "lat": "52.7357651", "tel": "033055/211 61", "id": "504"}, {"website": "www.schwielowsee.de", "fax": "", "fee": "K.A.", "from": "01.08.2015", "name": "13. F\u00e4hrfest", "zip": "", "lon": "12.9831015803516", "mail": "", "comments": "", "county": "Schwielowsee", "to": "01.08.2015", "host": "Gemeinde Schwielowsee", "location": "rund um das Caputher Gem\u00fcnde (Schwielowsee)", "time": "Beginn 14:00", "lat": "52.33678325", "tel": "033209/769 29", "id": "538"}, {"website": "www.Wollenschlaeger-Berlin.de", "fax": "03322/423 41 39", "fee": "K.A.", "from": "13.03.2015", "name": "FSV - Fr\u00fchlingsSparVolksfest", "zip": "13599", "lon": "13.2127405631435", "mail": "info@wollenschlaeger-berlin.de", "comments": "", "county": "Spandau", "to": "29.03.2015", "host": "Schaustellerbetrieb Thilo-Harry Wollenschlaeger", "location": "an der Zitadelle Spandau", "time": "Mo-Do 14:00-22:00\nFr, Sa 14:00-22:00\nSo 12:00-22:00", "lat": "52.54103025", "tel": "0163/400 05 00", "id": "278"}, {"website": "www.kunsthand-berlin.de", "fax": "401 74 40", "fee": "Eintritt 3 \u20ac, Kinder ab Jg. 2001 frei", "from": "28.03.2015", "name": "2. KUNSTHANDWERKLICHER OSTERMARKT ZITADELLE", "zip": "13599", "lon": "13.2127405631435", "mail": "info@kunsthand-berlin.de", "comments": "", "county": "Spandau", "to": "29.03.2015", "host": "Cornelja Hasler, KUNSTHAND-BERLIN; 40 63 70 31, 401 74 40", "location": "Renaissance-Festung Zitadelle Spandau, Am Juliusturm 64", "time": "11:00-18:00", "lat": "52.54103025", "tel": "40 63 70 31", "id": "280"}, {"website": "www.carnica-spectaculi.de", "fax": "033602/29 64", "fee": "Eintritt Erwachsene 11 \u20ac (3-Tageskarte 16 \u20ac), Sch\u00fcler, Studenten, Gewandete 9 \u20ac (14 \u20ac), Kinder 6 - 16 Jahre 5 \u20ac (9 \u20ac), Kinder bis 5 Jahre frei, Familie 25 \u20ac (2 Erwachsene mit eigenen Kindern bis 16 Jahre) (30 \u20ac),", "from": "04.04.2015", "name": "9. Oster-Ritter-Spectaculum auf der Zitadelle Spandau & 20 Jahre Carnica", "zip": "13599", "lon": "13.2127405631435", "mail": "post@carnica.de", "comments": " Eintritt enth\u00e4lt Besuch der Museen, des Turms und der Ausstellungen", "county": "Spandau", "to": "06.04.2015", "host": "Carnica Historische M\u00e4rkte & Feste", "location": "Zitadelle Innenhof", "time": "10:00-20:00", "lat": "52.54103025", "tel": "0171/515 32 70", "id": "282"}, {"website": "www.partner-fuer-spandau.de", "fax": "35 30 23 32", "fee": "K.A.", "from": "25.04.2015", "name": "7. Brandenburg-Tag", "zip": "13597", "lon": "13.2048142", "mail": "info@partner-fuer-spandau.de", "comments": "", "county": "Spandau", "to": "25.04.2015", "host": "Partner f\u00fcr Spandau - Gesellschaft f\u00fcr Bezirksmarketing mbH", "location": "Spandau - Marktplatz", "time": "11:00-18:00", "lat": "52.5372623", "tel": "36 75 72 61", "id": "284"}, {"website": "www.zitadelle-spandau.de", "fax": "354 944 296", "fee": "Eintritt frei", "from": "23.05.2015", "name": "23. Museumskinderfest auf der Zitadelle", "zip": "13599", "lon": "13.2127405631435", "mail": "info@zitadelle-berlin.de", "comments": "", "county": "Spandau", "to": "23.05.2015", "host": "Stadtgeschichtliches Museum", "location": "Zitadelle Spandau", "time": "14:00-18:00", "lat": "52.54103025", "tel": "354 944 297", "id": "286"}, {"website": "www.partner-fuer-spandau.de", "fax": "35 30 23 32", "fee": "K.A.", "from": "09.05.2015", "name": "7. Usedom-Tag + KinderWasserFest (gemeinsam mit dem BA Spandau)", "zip": "13597", "lon": "13.2048142", "mail": "info@partner-fuer-spandau.de", "comments": "", "county": "Spandau", "to": "09.05.2015", "host": "Partner f\u00fcr Spandau - Gesellschaft f\u00fcr Bezirksmarketing mbH", "location": "Spandau - Marktplatz", "time": "11:00-18:00", "lat": "52.5372623", "tel": "36 75 72 61", "id": "288"}, {"website": "www.zitadelle-spandau.de", "fax": "354 944 297", "fee": "Eintritt frei", "from": "17.05.2015", "name": "Zitadellentag (Tag der \"Offenen T\u00fcr\")", "zip": "13599", "lon": "13.2127405631435", "mail": "info@zitadelle-berlin.de", "comments": "", "county": "Spandau", "to": "17.05.2015", "host": "Stadtgeschichtliches Museum", "location": "Zitadelle Spandau", "time": "10:00-17:00", "lat": "52.54103025", "tel": "354 944 297", "id": "290"}, {"website": "www.gartenstadt-staaken.de", "fax": "36 70 62 29,", "fee": "Eintritt frei", "from": "13.05.2015", "name": "65. Staakener Kinder- und Volksfest", "zip": "13591", "lon": "13.1466169803331", "mail": "info@gartenstadt-staaken.de", "comments": "i. Z. m. Thilo-Harry Wollenschlaeger", "county": "Spandau", "to": "17.05.2015", "host": "Unterst\u00fctzungsverein Gartenstadt Staaken", "location": "Gartenstadt Staaken, Festplatz Staaken am Ungewitterweg", "time": "Mi 15:00-23:00\nDo 12:00-23:00\nFr 15:00-23:00\nSa 15:00-23:00\nSo 10:00-22:00", "lat": "52.5402801", "tel": "366 10 72", "id": "292"}, {"website": "www.partner-fuer-spandau.de", "fax": "35 30 23 32", "fee": "Eintritt frei", "from": "12.06.2015", "name": "21. Spandauer Havelfest", "zip": "13597", "lon": "13.2070032", "mail": "info@partner-fuer-spandau.de", "comments": "", "county": "Spandau", "to": "14.06.2015", "host": "Partner f\u00fcr Spandau - Gesellschaft f\u00fcr Bezirksmarketing mbH", "location": "Spandau - Lindenufer", "time": "Fr 18:00-24:00\nSa 11:00-24:00\nSo 11:00-20:00", "lat": "52.5366429", "tel": "36 75 72 61", "id": "294"}, {"website": "www.partner-fuer-spandau.de", "fax": "35 30 23 32", "fee": "K.A.", "from": "23.05.2015", "name": "Spandauer Pfingstkonzert in der Wilhelmstadt\nPfingstfest an der Scharfen Lanke", "zip": "13595", "lon": "13.1880325", "mail": "info@partner-fuer-spandau.de", "comments": "", "county": "Spandau", "to": "25.05.2015", "host": "Partner f\u00fcr Spandau - Gesellschaft f\u00fcr Bezirksmarketing mbH", "location": "Scharfe Lanke/Spandau-Wilhelmstadt", "time": "Sa 18:00-23:00\nSo 09:00-20:00\nMo 11:00-18:00", "lat": "52.5051152", "tel": "36 75 72 61", "id": "296"}, {"website": "www.evangelisches-johannesstift.de", "fax": "", "fee": "K.A.", "from": "25.05.2015", "name": "7. Run of Spirit im Evangelischen Johannesstift", "zip": "13587", "lon": "13.1960653792926", "mail": "info@evangelisches-johannesstift.de", "comments": "", "county": "Spandau", "to": "25.05.2015", "host": "Evangelisches Johannesstift", "location": "Sch\u00f6nwalder Allee 26", "time": "", "lat": "52.57227605", "tel": "33 60 90", "id": "298"}, {"website": "www.casa-ev.de", "fax": "", "fee": "K.A.", "from": "18.07.2015", "name": "Spandauer Kunstb\u00f6rse", "zip": "13597", "lon": "13.2048142", "mail": "kontakt@casa-ev.de", "comments": "", "county": "Spandau", "to": "18.07.2015", "host": "Bezirksamt Spandau von Berlin, Abt. Jugend, Bildung, Kultur und Sport, Durchf\u00fchrung & Koordination: Sozial-kulturelle Netzwerke casa e. V.", "location": "Altstadt Spandau, Markt", "time": "12:00-19:00", "lat": "52.5372623", "tel": "382 52 81", "id": "300"}, {"website": "www.mhm-gatow.de", "fax": "", "fee": "Eintritt frei", "from": "13.06.2015", "name": "Modellflugtage und 10. Kladower Radfestival", "zip": "14089", "lon": "13.1414757570236", "mail": "", "comments": "Anfahrt und Einlass \u00fcber \"Am Flugplatz Gatow\" (Museumseingang)", "county": "Spandau", "to": "14.06.2015", "host": "Milit\u00e4rhistorisches Museum Flugplatz Berlin-Gatow", "location": "Milit\u00e4rhistorisches Museum Flugplatz Berlin-Gatow", "time": "10:00-18:00", "lat": "52.47263525", "tel": "36 87 26 01", "id": "302"}, {"website": "www.fetedelamusique.de", "fax": "", "fee": "Eintritt frei", "from": "21.06.2015", "name": "21. F\u00eate de la Musique", "zip": "", "lon": "13.195439", "mail": "hallo@fetedelamusique.de", "comments": "Veranstaltungsorte und Uhrzeiten: siehe gesondertes Verzeichnis", "county": "Spandau", "to": "21.06.2015", "host": "F\u00eate Company, Wallstr. 15a, 10179 Berlin", "location": "", "time": "", "lat": "52.5192672", "tel": "", "id": "304"}, {"website": "www.partner-fuer-spandau.de", "fax": "35 30 23 32", "fee": "K.A.", "from": "03.07.2015", "name": "Jazz am Hafen", "zip": "14089", "lon": "13.151033", "mail": "info@partner-fuer-spandau.de", "comments": "", "county": "Spandau", "to": "05.07.2015", "host": "Partner f\u00fcr Spandau - Gesellschaft f\u00fcr Bezirksmarketing mbH", "location": "Kladower Hafen / Imchenallee", "time": "Fr 17:00-24:00\nSa 11:00-24:00\nSo 11:00-19:00", "lat": "52.4535966", "tel": "36 75 72 61", "id": "306"}, {"website": "www.partner-fuer-spandau.de", "fax": "35 30 23 32", "fee": "K.A.", "from": "01.08.2015", "name": "33. Bayern-Tag in der Spandauer Altstadt", "zip": "13597", "lon": "13.2048142", "mail": "info@partner-fuer-spandau.de", "comments": "", "county": "Spandau", "to": "01.08.2015", "host": "Partner f\u00fcr Spandau - Gesellschaft f\u00fcr Bezirksmarketing mbH", "location": "Spandau - Marktplatz", "time": "11:00-18:00", "lat": "52.5372623", "tel": "36 75 72 62", "id": "308"}, {"website": "www.partner-fuer-spandau.de", "fax": "35 30 23 32", "fee": "K.A.", "from": "27.08.2015", "name": "16. Spandauer Altstadtfest & WeinSommer", "zip": "13597", "lon": "13.2047278", "mail": "info@partner-fuer-spandau.de", "comments": "www.weinsommer.de", "county": "Spandau", "to": "30.08.2015", "host": "Partner f\u00fcr Spandau - Gesellschaft f\u00fcr Bezirksmarketing mbH", "location": "Rathausvorplatz und Altstadt Spandau", "time": "Do 15:00-23:00\nFr 11:00-24:00\nSa 11:00-24:00\nSo 11:00-20:00", "lat": "52.5385396", "tel": "36 75 72 61", "id": "310"}, {"website": "www.mhm-gatow.de", "fax": "", "fee": "Eintritt frei", "from": "05.09.2015", "name": "Flugplatzfest und Tag der Reservisten in Berlin", "zip": "14089", "lon": "13.1414757570236", "mail": "", "comments": " Anfahrt und Einlass \u00fcber \"Am Flugplatz Gatow\" (Museumseingang)", "county": "Spandau", "to": "06.09.2015", "host": "Milit\u00e4rhistorisches Museum Flugplatz Berlin-Gatow", "location": "Milit\u00e4rhistorisches Museum Flugplatz Berlin-Gatow", "time": "10:00-18:00", "lat": "52.47263525", "tel": "36 87 26 01", "id": "312"}, {"website": "www.ag-altstadt-spandau.de", "fax": "333 70 41", "fee": "Erwachsene 9 \u20ac, Kinder 5 bis 14 Jahre 3 \u20ac", "from": "12.09.2015", "name": "34. Burgfest auf der Zitadelle", "zip": "13599", "lon": "13.2127405631435", "mail": "jahn@ag-altstadt-spandau.de", "comments": "", "county": "Spandau", "to": "13.09.2015", "host": "Arbeitsgemeinschaft Altstadt Spandau e. V.", "location": "Zitadelle Spandau", "time": "Sa 11:00-23:00\nSo 11:00-20:00", "lat": "52.54103025", "tel": "333 83 77", "id": "314"}, {"website": "www.evangelisches-johannesstift.de", "fax": "", "fee": "K.A.", "from": "27.09.2015", "name": "Erntedankfest im Evangelischen Johannesstift", "zip": "13587", "lon": "13.1960653792926", "mail": "info@evangelisches-johannesstift.de", "comments": "", "county": "Spandau", "to": "27.09.2015", "host": "Evangelisches Johannesstift", "location": "Sch\u00f6nwalder Allee 26", "time": "11:00-19:00", "lat": "52.57227605", "tel": "33 60 90", "id": "316"}, {"website": "", "fax": "333 70 41", "fee": "K.A.", "from": "03.10.2015", "name": "Lichterfest - 1000 Sterne \u00fcber Spandau", "zip": "13599", "lon": "13.2127405631435", "mail": "jahn@ag-altstadt-spandau.de", "comments": "", "county": "Spandau", "to": "03.10.2015", "host": "Arbeitsgemeinschaft Altstadt Spandau e. V.", "location": "Zitadelle Spandau", "time": "17:00-23:00", "lat": "52.54103025", "tel": "333 83 77", "id": "318"}, {"website": "www.wollenschlaeger-berlin.de", "fax": "03322/423 41 39", "fee": "K.A.", "from": "09.10.2015", "name": "Oktoberfest Spandau", "zip": "", "lon": "13.195439", "mail": "info@wollenschlaeger-berlin.de", "comments": "", "county": "Spandau", "to": "24.10.2015", "host": "Schaustellerbetrieb Thilo-Harry Wollenschlaeger", "location": "", "time": "15:00 - 24:00", "lat": "52.5192672", "tel": "0163/400 05 00", "id": "320"}, {"website": "www.ag-altstadt-spandau.de", "fax": "333 70 41", "fee": "Erwachsene 12,00 \u20ac , Kinder bis 2 \u2013 14 Jahre 3,00 \u20ac", "from": "31.12.2015", "name": "Silvesterparty in der Zitadelle", "zip": "13599", "lon": "13.2127405631435", "mail": "jahn@ag-altstadt-spandau.de", "comments": "", "county": "Spandau", "to": "31.12.2015", "host": "Arbeitsgemeinschaft Altstadt Spandau e. V.", "location": "Zitadelle Spandau", "time": "ab 19:00", "lat": "52.54103025", "tel": "333 83 77", "id": "322"}, {"website": "www.domaene-dahlem.de", "fax": "66 63 00 20", "fee": "Eintritt 2 \u20ac, erm\u00e4\u00dfigt 1 \u20ac, Kinder bis 16 Jahre frei", "from": "28.03.2015", "name": "Fr\u00fchlingsfest auf der Dom\u00e4ne Dahlem", "zip": "14195", "lon": "13.2881530629885", "mail": "kontakt@domaene-dahlem.de", "comments": "Zugrindervorf\u00fchrung 15:00-16:30,", "county": "Steglitz-Zehlendorf", "to": "29.03.2015", "host": "Dom\u00e4ne Dahlem Veranstaltungsgesellschaft mbH", "location": "K\u00f6nigin-Luise-Str. 49", "time": "10:00-18:00", "lat": "52.4586535", "tel": "66 63 00 - 0", "id": "324"}, {"website": "www.gv-degenhardt.de", "fax": "824 20 47", "fee": "K.A.", "from": "22.03.2015", "name": "Ostermarkt auf dem Ferdinandmarkt", "zip": "12209", "lon": "13.3279695", "mail": "info@gv-degenhardt.de", "comments": "", "county": "Steglitz-Zehlendorf", "to": "22.03.2015", "host": "Thomas Degenhardt", "location": "Ferdinandstr. 34/35", "time": "11:00-18:00", "lat": "52.4280309", "tel": "824 20 45", "id": "326"}, {"website": "www.domaene-dahlem.de", "fax": "66 63 00 20", "fee": "Eintritt 2 \u20ac, erm\u00e4\u00dfigt 1 \u20ac, Kinder bis 16 Jahre frei", "from": "19.04.2015", "name": "13. Berliner Bratwurstmeisterschaft auf der Dom\u00e4ne Dahlem", "zip": "14195", "lon": "13.2881530629885", "mail": "kontakt@domaene-dahlem.de", "comments": "", "county": "Steglitz-Zehlendorf", "to": "19.04.2015", "host": "Dom\u00e4ne Dahlem Veranstaltungsgesellschaft mbH", "location": "K\u00f6nigin-Luise-Str. 49", "time": "10:00-18:00", "lat": "52.4586535", "tel": "66 63 00 - 0", "id": "328"}, {"website": "", "fax": "", "fee": "K.A.", "from": "29.03.2015", "name": "K\u00fcnstlerstation am Bahnhof Mexikoplatz (Jahrmarkt)", "zip": "14163", "lon": "13.2333796", "mail": "", "comments": "", "county": "Steglitz-Zehlendorf", "to": "29.03.2015", "host": "Frau Ramona Martin", "location": "Bahnhof Mexikoplatz", "time": "11:00-19:00", "lat": "52.4367503", "tel": "802 87 79", "id": "330"}, {"website": "www.domaene-dahlem.de", "fax": "66 63 00 20", "fee": "Eintritt 2 \u20ac, erm\u00e4\u00dfigt 1 \u20ac, Kinder bis 16 Jahre frei", "from": "25.04.2015", "name": "Kleiner Historischer Jahrmarkt auf der Dom\u00e4ne Dahlem", "zip": "14195", "lon": "13.2881530629885", "mail": "kontakt@domaene-dahlem.de", "comments": "", "county": "Steglitz-Zehlendorf", "to": "26.04.2015", "host": "Dom\u00e4ne Dahlem Veranstaltungsgesellschaft mbH", "location": "K\u00f6nigin-Luise-Str. 49", "time": "11:00-19:00", "lat": "52.4586535", "tel": "66 63 00 - 0", "id": "332"}, {"website": "www.domaene-dahlem.de", "fax": "66 63 00 20", "fee": "Eintritt 2 \u20ac, erm\u00e4\u00dfigt 1 \u20ac, Kinder bis 16 Jahre frei", "from": "01.05.2015", "name": "Ruff uff'n Rummel! Auf der Dom\u00e4ne Dahlem", "zip": "14195", "lon": "13.2881530629885", "mail": "kontakt@domaene-dahlem.de", "comments": "", "county": "Steglitz-Zehlendorf", "to": "03.05.2015", "host": "Dom\u00e4ne Dahlem Veranstaltungsgesellschaft mbH", "location": "K\u00f6nigin-Luise-Str. 49", "time": "11:00-19:00", "lat": "52.4586535", "tel": "66 63 00 - 0", "id": "334"}, {"website": "www.dueppel.de", "fax": "", "fee": "Eintritt frei", "from": "17.05.2015", "name": "Museumsfest \"40\"", "zip": "14163", "lon": "13.2332168", "mail": "info@dueppel.de", "comments": "", "county": "Steglitz-Zehlendorf", "to": "17.05.2015", "host": "Museumsdorf D\u00fcppel", "location": "Museumsdorf D\u00fcppel, Clauertstr. 11", "time": "10:00-17:00", "lat": "52.4239598", "tel": "802 66 71", "id": "336"}, {"website": "www.schaustellerverband-berlin.de", "fax": "213 40 34", "fee": "Eintritt frei", "from": "22.05.2015", "name": "63. Steglitzer Woche", "zip": "14109", "lon": "13.1427835", "mail": "info@svbev.de", "comments": "mittwochs halbe Preise auf alle Karussells und Bahnen, ", "county": "Steglitz-Zehlendorf", "to": "07.06.2015", "host": "Schaustellerverband Berlin e. V.,\n213 32 90, 213 40 34", "location": "Festpark am Teltowkanal, B\u00e4kepark", "time": "Mo-Do 15:00-22:00\nFr 15:00-23:00\nSa 14:00-23:00\nSo 14:00-22:00", "lat": "52.3991236", "tel": "213 32 90", "id": "338"}, {"website": "www.dueppel.de", "fax": "", "fee": "Eintritt 5 \u20ac, erm\u00e4\u00dfigt 2,50 \u20ac", "from": "23.05.2015", "name": "Ritterfest", "zip": "14163", "lon": "13.2332168", "mail": "info@dueppel.de", "comments": "", "county": "Steglitz-Zehlendorf", "to": "25.05.2015", "host": "Museumsdorf D\u00fcppel", "location": "Museumsdorf D\u00fcppel, Clauertstr. 11", "time": "10:00-17:00", "lat": "52.4239598", "tel": "802 66 71", "id": "340"}, {"website": "http://www.berlin.de/ba-steglitz-zehlendorf/verwaltung/integration/index.html", "fax": "", "fee": "K.A.", "from": "02.06.2015", "name": "Interkulturelle Infob\u00f6rse - mit kulturellem Rahmenprogramm", "zip": "14163", "lon": "13.2588636487413", "mail": "", "comments": "", "county": "Steglitz-Zehlendorf", "to": "02.06.2015", "host": "Bezirksamt Steglitz-Zehlendorf, B\u00fcro des Bezirksb\u00fcrgermeisters, Beauftragte f\u00fcr Integration & Migration", "location": "Rathaus Zehlendorf, B\u00fcrgersaal, Teltower Damm 18, 14163 Berlin (Zehlendorf-Mitte)", "time": "15:00-20:00", "lat": "52.43296575", "tel": "", "id": "342"}, {"website": "wwww.fetedelamusique.de", "fax": "", "fee": "Eintritt frei", "from": "21.06.2015", "name": "21. F\u00eate de la Musique", "zip": "", "lon": "13.2299741", "mail": "hallo@fetedelamusique.de", "comments": "Veranstaltungsorte und Uhrzeiten: siehe gesondertes Verzeichnis", "county": "Steglitz-Zehlendorf", "to": "21.06.2015", "host": "F\u00eate Company, Wallstr. 15a, 10179 Berlin", "location": "", "time": "", "lat": "52.4292052", "tel": "", "id": "344"}, {"website": "www.domaene-dahlem.de", "fax": "66 63 00 20", "fee": "Eintritt 2 \u20ac, erm\u00e4\u00dfigt 1 \u20ac, Kinder bis 16 Jahre frei", "from": "22.08.2015", "name": "Brandenburger Spezialit\u00e4tenmarkt - Regional und Bio auf der Dom\u00e4ne Dahlem", "zip": "14195", "lon": "13.2881530629885", "mail": "kontakt@domaene-dahlem.de", "comments": "", "county": "Steglitz-Zehlendorf", "to": "23.08.2015", "host": "Dom\u00e4ne Dahlem Veranstaltungsgesellschaft mbH", "location": "K\u00f6nigin-Luise-Str. 49", "time": "10:00-18:00", "lat": "52.4586535", "tel": "66 63 00 - 0", "id": "346"}, {"website": "www.dueppel.de", "fax": "", "fee": "Eintritt 3 \u20ac, erm\u00e4\u00dfigt 1,50 \u20ac", "from": "30.08.2015", "name": "AWO Sommerfest", "zip": "14163", "lon": "13.2332168", "mail": "info@dueppel.de", "comments": "", "county": "Steglitz-Zehlendorf", "to": "30.08.2015", "host": "Museumsdorf D\u00fcppel", "location": "Museumsdorf D\u00fcppel, Clauertstr. 11", "time": "10:00-17:00", "lat": "52.4239598", "tel": "802 66 71", "id": "348"}, {"website": "www.domaene-dahlem.de", "fax": "66 63 00 20", "fee": "Eintritt 5 \u20ac, erm\u00e4\u00dfigt 3 \u20ac, Kinder unter Schwertma\u00df frei", "from": "05.09.2015", "name": "Mittelalterlicher Markt und Spectaculum mit Ritterturnier Kramer Zunft und Kurtzweyl auf der Dom\u00e4ne Dahlem", "zip": "14195", "lon": "13.2881530629885", "mail": "kontakt@domaene-dahlem.de", "comments": "", "county": "Steglitz-Zehlendorf", "to": "06.09.2015", "host": "Dom\u00e4ne Dahlem Veranstaltungsgesellschaft mbH", "location": "K\u00f6nigin-Luise-Str. 49", "time": "11:00-19:00", "lat": "52.4586535", "tel": "66 63 00 - 0", "id": "350"}, {"website": "www.domaene-dahlem.de", "fax": "66 63 00 20", "fee": "Eintritt 2 \u20ac, erm\u00e4\u00dfigt 1 \u20ac, Kinder bis 16 Jahre frei", "from": "19.09.2015", "name": "Kartoffelfest auf der Dom\u00e4ne Dahlem", "zip": "14195", "lon": "13.2881530629885", "mail": "kontakt@domaene-dahlem.de", "comments": "", "county": "Steglitz-Zehlendorf", "to": "20.09.2015", "host": "Dom\u00e4ne Dahlem Veranstaltungsgesellschaft mbH", "location": "K\u00f6nigin-Luise-Str. 49", "time": "10:00-19:00", "lat": "52.4586535", "tel": "66 63 00 - 0", "id": "352"}, {"website": "", "fax": "", "fee": "K.A.", "from": "13.09.2015", "name": "K\u00fcnstlerstation am Bahnhof Mexikoplatz (Jahrmarkt)", "zip": "14163", "lon": "13.2333796", "mail": "", "comments": "", "county": "Steglitz-Zehlendorf", "to": "13.09.2015", "host": "Frau Ramona Martin", "location": "Bahnhof Mexikoplatz", "time": "11:00-19:00", "lat": "52.4367503", "tel": "802 87 79", "id": "354"}, {"website": "www.domaene-dahlem.de", "fax": "66 63 00 20", "fee": "Eintritt 2 \u20ac, erm\u00e4\u00dfigt 1 \u20ac, Kinder bis 16 Jahre frei", "from": "10.10.2015", "name": "Erntefest auf der Dom\u00e4ne Dahlem", "zip": "14195", "lon": "13.2881530629885", "mail": "kontakt@domaene-dahlem.de", "comments": "", "county": "Steglitz-Zehlendorf", "to": "11.10.2015", "host": "Dom\u00e4ne Dahlem Veranstaltungsgesellschaft mbH", "location": "K\u00f6nigin-Luise-Str. 49", "time": "10:00-18:00", "lat": "52.4586535", "tel": "66 63 00 - 0", "id": "356"}, {"website": "www.domaene-dahlem.de", "fax": "66 63 00 20", "fee": "Eintritt 2 \u20ac, erm\u00e4\u00dfigt 1 \u20ac, Kinder bis 16 Jahre frei", "from": "07.11.2015", "name": "27. Berliner Textilhandwerksmarkt mit Sankt-Martin-Laternenumzug auf der Dom\u00e4ne Dahlem", "zip": "14195", "lon": "13.2881530629885", "mail": "kontakt@domaene-dahlem.de", "comments": "Umzug jeweils ca. 17:30, ", "county": "Steglitz-Zehlendorf", "to": "08.11.2015", "host": "Dom\u00e4ne Dahlem Veranstaltungsgesellschaft mbH", "location": "K\u00f6nigin-Luise-Str. 49", "time": "10:00-18:00", "lat": "52.4586535", "tel": "66 63 00 - 0", "id": "358"}, {"website": "www.wassersportzentrum-oranienburg.de", "fax": "03301/53 95 91", "fee": "K.A.", "from": "06.06.2015", "name": "7. Stolzenhagener Drachenbootrennen", "zip": "", "lon": "14.1020524", "mail": "info@wassersportzentrum-oranienburg.de", "comments": "", "county": "Stolzenhagen", "to": "06.06.2015", "host": "Stadt Stolzenhagen, Organisation: Wassersportzentrum Oranienburg", "location": "", "time": "Beginn: 10:00", "lat": "52.948718", "tel": "03301/53 95 90", "id": "512"}, {"website": "www.carnica-spectaculi.de", "fax": "033602/29 64", "fee": "Eintritt Erwachsene 6 \u20ac, Kinder bis 5 Jahre frei, Kinder 6 - 16 Jahre 4 \u20ac, Sch\u00fcler, Studenten 5 \u20ac, Familie 15 \u20ac (2 Erwachsene mit eigenen Kindern bis 16 Jahre)", "from": "15.08.2015", "name": "6. Gaukler-Burgfest auf der Burg - Historischer Gauklermarkt, Gaukler-Musik, Gaukler-M\u00e4rchen & Gaukler-Feuer-Show", "zip": "15859", "lon": "13.9332827505028", "mail": "post@carnica.de", "comments": "", "county": "Storkow", "to": "16.08.2015", "host": "Carnica Historische Feste & M\u00e4rkte", "location": "Burg Storkow", "time": "Sa 10:00-23:00\nSo 10:00-19:00", "lat": "52.2528112", "tel": "0171/515 32 70", "id": "544"}, {"website": "www.heimatfreunde-ruhlsdorf.de", "fax": "", "fee": "Eintritt frei", "from": "05.04.2015", "name": "Osterfeuer in Ruhlsdorf", "zip": "14513", "lon": "13.2597651473358", "mail": "info@heimatfreunderuhlsdorf.de", "comments": "", "county": "Teltow", "to": "05.04.2015", "host": "Heimatfreunde Teltow e. V. & Stadt Teltow, J\u00f6rg-Peter Mehlhose", "location": "Festwiese am R\u00f6thepfuhl, Teltow, Ortsteil Ruhlsdorf", "time": "18:00-22:00", "lat": "52.3742445", "tel": "Tel.:03328/44 47 03", "id": "452"}, {"website": "Carola.fanter@t-online.de", "fax": "", "fee": "K.A.", "from": "26.04.2015", "name": "Japanisches Kirschbl\u00fctenfest - Hanami", "zip": "14979", "lon": "13.3591516651985", "mail": "m.belkner@teltow.de", "comments": "", "county": "Teltow", "to": "26.04.2015", "host": "Stadt Teltow, Michael Belkner", "location": "Entlang des Berliner Mauerwegs bei Teltow/Berlin-Lichterfelde, Lichterfelder Allee/Marienfelder Anger/Sigridshorst", "time": "13:00-18:00", "lat": "52.3931335", "tel": "03328/478 12 40", "id": "458"}, {"website": "www.teltow.de", "fax": "", "fee": "K.A.", "from": "02.05.2015", "name": "Maibaum & Tanz in den Mai", "zip": "14513", "lon": "13.2640164", "mail": "c.neumann@teltow.de", "comments": "", "county": "Teltow", "to": "02.05.2015", "host": "Lokale Agenda 21 der Stadt Teltow und Stadtverwaltung Teltow, Cornelia Neumann", "location": "Marktplatz Teltow", "time": "10:00", "lat": "52.4026342", "tel": "03328/478 12 41", "id": "462"}, {"website": "www.teltow.de", "fax": "", "fee": "K.A.", "from": "12.07.2015", "name": "Festumzug: Feierlicher Jubil\u00e4umszug durch Teltow", "zip": "", "lon": "13.2644532", "mail": "c.neumann@teltow.de", "comments": "", "county": "Teltow", "to": "12.07.2015", "host": "Lokale Agenda 21 der Stadt Teltow und Stadtverwaltung Teltow, Cornelia Neumann", "location": "Im Stadtgebiet", "time": "K.A.", "lat": "52.4016457", "tel": "03328/478 12 41", "id": "526"}, {"website": "www.teltow.de", "fax": "", "fee": "K.A.", "from": "12.07.2015", "name": "Fest: Gemeinsam feiern im Mattausch-Park", "zip": "14513", "lon": "13.2582373151731", "mail": "c.neumann@teltow.de", "comments": "", "county": "Teltow", "to": "12.07.2015", "host": "Lokale Agenda 21 der Stadt Teltow und Stadtverwaltung Teltow, Cornelia Neumann", "location": "Mattausch-Park", "time": "ab 10:00", "lat": "52.40286835", "tel": "03328/478 12 41", "id": "528"}, {"website": "www.teltow.de", "fax": "", "fee": "K.A.", "from": "30.08.2015", "name": "\"Tag der Offenen H\u00f6fe\"", "zip": "", "lon": "13.2644532", "mail": "c.neumann@teltow.de", "comments": "", "county": "Teltow", "to": "30.08.2015", "host": "Lokale Agenda 21 der Stadt Teltow und Stadtverwaltung Teltow, Cornelia Neumann", "location": "Teltower Altstadt", "time": "12:00-18:00", "lat": "52.4016457", "tel": "03328/478 12 41", "id": "562"}, {"website": "www.carnica-spectaculi.de", "fax": "033602/29 64", "fee": "Eintritt Erwachsene 6 \u20ac, Kinder bis 5 Jahre frei, Kinder 6 - 16 Jahre 4 \u20ac, Sch\u00fcler, Studenten, gewandete G\u00e4ste 5 \u20ac , Familie 15 \u20ac (2 Erwachsene mit eigenen Kindern bis 16 Jahre)", "from": "05.09.2015", "name": "7. Ritterfest in Teltow", "zip": "14513", "lon": "13.2644532", "mail": "post@carnica.de", "comments": "", "county": "Teltow", "to": "06.09.2015", "host": "Carnica Historische Feste & M\u00e4rkte", "location": "", "time": "Sa 10:00-22:00\nSo 10:00-19:00", "lat": "52.4016457", "tel": "0171/515 32 70", "id": "564"}, {"website": "www.teltow.de", "fax": "", "fee": "K.A.", "from": "11.09.2015", "name": "Irischer Abend", "zip": "14513", "lon": "13.2640164", "mail": "c.neumann@teltow.de", "comments": "", "county": "Teltow", "to": "11.09.2015", "host": "Stadtverwaltung Teltow, Cornelia Neumann", "location": "Marktplatz Teltow", "time": "19:00", "lat": "52.4026342", "tel": "03328/478 12 41", "id": "566"}, {"website": "www.teltowerruebchen.de", "fax": "", "fee": "K.A.", "from": "27.09.2015", "name": "R\u00fcbchenfest", "zip": "14513", "lon": "13.2597651473358", "mail": "post@soeren-kosanke.de", "comments": "", "county": "Teltow", "to": "27.09.2015", "host": "F\u00f6rderverein f\u00fcr das Teltower R\u00fcbchen e. V., S\u00f6ren Kosanke (Vorsitzender)", "location": "Am R\u00f6thepfuhl, Teltow, Ortsteil Ruhlsdorf", "time": "12:00-19:00", "lat": "52.3742445", "tel": "03328/33 73 07", "id": "600"}, {"website": "www.teltow.de", "fax": "", "fee": "K.A.", "from": "01.10.2015", "name": "Teltower Stadtfest", "zip": "14513", "lon": "13.2500727", "mail": "m.belkner@teltow.de", "comments": "", "county": "Teltow", "to": "04.10.2015", "host": "Stadt Teltow, Michael Belkner", "location": "Gewerbepark Techno Terrain Teltow, Rheinstra\u00dfe", "time": "Fr 16:00-24:00\nSa 12:00-24:00\nSo 12:00-22:00", "lat": "52.4011328", "tel": "03328/478 12 40", "id": "606"}, {"website": "www.heimatfreunde-ruhlsdorf.de", "fax": "", "fee": "K.A.", "from": "16.10.2015", "name": "Ruhlsdorfer Oktoberfest", "zip": "", "lon": "13.1581071157424", "mail": "info@heimatfreunderuhlsdorf.de", "comments": "", "county": "Teltow", "to": "18.10.2015", "host": "Heimatfreunde Ruhlsdorf e. V. & Stadt Teltow, J\u00f6rg-Peter Mehlhose", "location": "Teltow, Ortsteil Ruhlsdorf", "time": "ab Fr: 19:00", "lat": "52.1312672", "tel": "03328/478 12 40", "id": "614"}, {"website": "www.nareyka.de", "fax": "229 25 00", "fee": "K.A.", "from": "04.04.2015", "name": "19. Osterfest Hauptstra\u00dfe", "zip": "10827", "lon": "13.3568684", "mail": "info@nareyka.de", "comments": "", "county": "Tempelhof-Sch\u00f6neberg", "to": "06.04.2015", "host": "Nareyka Event GmbH", "location": "In Berlin-Sch\u00f6neberg zwischen Kaiser-Wilhelm-Platz und Dominicusstra\u00dfe", "time": "Sa.-So. 10-22 Uhr, Mo. 10-20 Uhr", "lat": "52.4865266", "tel": "229 04 86/87", "id": "360"}, {"website": "", "fax": "", "fee": "K.A.", "from": "25.04.2015", "name": "Fr\u00fchlingsfest im K\u00e4rntener-Kiez", "zip": "10827", "lon": "13.3480469", "mail": "", "comments": "", "county": "Tempelhof-Sch\u00f6neberg", "to": "25.04.2015", "host": "Kontakt: Fabian Lenzen", "location": "K\u00e4rntener Stra\u00dfe, Berlin-Sch\u00f6neberg", "time": "11:00-16:00", "lat": "52.4776675", "tel": "781 51 02", "id": "362"}, {"website": "www.nareyka.de", "fax": "229 25 00", "fee": "K.A.", "from": "09.05.2015", "name": "42. Fr\u00fchlingsfest Rheinstra\u00dfe", "zip": "12161", "lon": "13.3283233", "mail": "info@nareyka.de", "comments": "", "county": "Tempelhof-Sch\u00f6neberg", "to": "10.05.2015", "host": "Nareyka Event GmbH", "location": "in Berlin-Sch\u00f6neberg zwischen Walther-Schreiber-Platz und Kaisereiche", "time": "Sa: 10:00 - 22:00 So: 12:00 - 22:00", "lat": "52.4649223", "tel": "229 04 86/87", "id": "364"}, {"website": "www.MS-Event-Agentur.com", "fax": "", "fee": "K.A.", "from": "09.05.2015", "name": "Sch\u00f6neberger Mai & Spargelfest", "zip": "10825", "lon": "13.3384003567499", "mail": "sieg@ms-event-agentur.com", "comments": "im Auftrag der Bezirksb\u00fcrgermeisterin A. Sch\u00f6ttler von Tempelhof-Sch\u00f6neberg", "county": "Tempelhof-Sch\u00f6neberg", "to": "10.05.2015", "host": "MS-Event-Agentur, Frau Sieg-Heuke", "location": "Am Rathaus Sch\u00f6neberg im Rudolph-Wilde-Park", "time": "Sa 11:00-21:00\nSo 10:00-20:00", "lat": "52.4820031", "tel": "0173/237 88 55", "id": "366"}, {"website": "www.family-and-friends-eV.de", "fax": "305 55 21", "fee": "K.A.", "from": "01.05.2015", "name": "Kunst trifft Wein - 6. Lichtenrader Maientanz", "zip": "12309", "lon": "13.4108653", "mail": "weinfest@family-and-friends-eV.de", "comments": "", "county": "Tempelhof-Sch\u00f6neberg", "to": "03.05.2015", "host": "Family & Friends e. V. ", "location": "am Dorfteich, Alt-Lichtenrade", "time": "Fr 16:00-22:00\nSa 12:00-23:00\nSo 12:00-20:00", "lat": "52.3965641", "tel": "3055521", "id": "368"}, {"website": "www.MS-Event-Agentur.com", "fax": "", "fee": "K.A.", "from": "02.05.2015", "name": "Primavera = Fr\u00fchling auf der Akazienstra\u00dfe", "zip": "10823", "lon": "13.3546938", "mail": "sieg@ms-event-agentur.com", "comments": "unter der Schirmherrschaft des Stadtrates Oliver Schworck", "county": "Tempelhof-Sch\u00f6neberg", "to": "03.05.2015", "host": "MS-Event-Agentur, Frau Sieg-Heuke", "location": "Akazienstra\u00dfe, Belziger Stra\u00dfe, Berlin-Sch\u00f6neberg", "time": "Sa 11:00-21:00\nSo 10:00-20:00", "lat": "52.4874748", "tel": "0173/237 88 55", "id": "370"}, {"website": "www.crelleton.de", "fax": "", "fee": "K.A.", "from": "06.06.2015", "name": "7. CrelleChorfest - Die Crellestra\u00dfe gibt den Ton an - Gesang in allen Tonlagen", "zip": "10827", "lon": "13.363805", "mail": "info@crelleton.de", "comments": "", "county": "Tempelhof-Sch\u00f6neberg", "to": "06.06.2015", "host": "Netzwerk Crelle-Kiez.de", "location": "Crellestra\u00dfe, Sch\u00f6neberg", "time": "13:00-19:00", "lat": "52.4896067", "tel": "78 71 64 73", "id": "372"}, {"website": "www.regenbogenfonds.de", "fax": "21 47 35 88", "fee": "Eintritt frei", "from": "20.06.2015", "name": "23. Lesbisch-schwules Stadtfest Berlin", "zip": "10777", "lon": "13.3455539", "mail": "info@regenbogenfonds.de", "comments": "", "county": "Tempelhof-Sch\u00f6neberg", "to": "21.06.2015", "host": "Regenbogenfonds e. V.", "location": "Motzstra\u00dfe/Eisenacher Stra\u00dfe/Fuggerstra\u00dfe/Kalckreuthstra\u00dfe/Nollendorfplatz", "time": "ab 11:00", "lat": "52.4970021", "tel": "21 47 35 86", "id": "374"}, {"website": "www.fetedelamusique.de", "fax": "", "fee": "Eintritt frei", "from": "21.06.2015", "name": "21. F\u00eate de la Musique", "zip": "", "lon": "13.3737035", "mail": "hallo@fetedelamusique.de", "comments": "Veranstaltungsorte und Uhrzeiten: siehe gesondertes Verzeichnis", "county": "Tempelhof-Sch\u00f6neberg", "to": "21.06.2015", "host": "F\u00eate Company, Wallstr. 15a, 10179 Berlin", "location": "", "time": "", "lat": "52.4406033", "tel": "", "id": "376"}, {"website": "www.tsv-marienfelde.de", "fax": "74 30 59 65", "fee": "K.A.", "from": "27.06.2015", "name": "TSV Sommer - Sportfest auf dem Gel\u00e4nde der Feuerwache - 125-j\u00e4hriges Jubil\u00e4um", "zip": "12277", "lon": "13.3674736", "mail": "sport@tsv-marienfelde.de", "comments": "", "county": "Tempelhof-Sch\u00f6neberg", "to": "27.06.2015", "host": "TSV Marienfelde 1890 e. V.", "location": "Vereinsgel\u00e4nde \"Alte Feuerwache\", Alt-Marienfelde 36", "time": "14:00-20:00", "lat": "52.4127302", "tel": "722 45 46", "id": "378"}, {"website": "www.catering-company-berlin.de", "fax": "28 59 81 40", "fee": "Eintritt frei", "from": "10.07.2015", "name": "32. Rocktreff & Spielfest", "zip": "12109", "lon": "13.3897589051102", "mail": "cateringcompany@email.de", "comments": "", "county": "Tempelhof-Sch\u00f6neberg", "to": "12.07.2015", "host": "Catering Company GmbH, Herr Arzig", "location": "Volkspark Mariendorf", "time": "12:00 - 18:00", "lat": "52.44246305", "tel": "282 21 84, 0170/222 12 20", "id": "380"}, {"website": "www.nareyka.de", "fax": "229 25 00", "fee": "K.A.", "from": "04.07.2015", "name": "43. Jazzfest Rheinstra\u00dfe!", "zip": "12161", "lon": "13.3283233", "mail": "info@nareyka.de", "comments": "", "county": "Tempelhof-Sch\u00f6neberg", "to": "05.07.2015", "host": "Nareyka Event GmbH", "location": "in Berlin-Sch\u00f6neberg zwischen Walther-Schreiber-Platz und Kaisereiche", "time": "Sa 10:00-22:00\nSo 10:00-20:00", "lat": "52.4649223", "tel": "229 04 86/87", "id": "382"}, {"website": "www.whisky-herbst.de", "fax": "", "fee": "Eintritt 10 \u20ac", "from": "04.09.2015", "name": "16. C\u00f6penicker Whisky-Herbst", "zip": "12103", "lon": "13.3668644", "mail": "whiskyherbst@aol.com", "comments": "", "county": "Tempelhof-Sch\u00f6neberg", "to": "05.09.2015", "host": "C\u00f6penicker Whiskyherbst GbR", "location": "Malzfabrik Tempelhof, Bessemerstr. 2 - 14", "time": "Fr 15:00-22:00\nSa 12:00-22:00", "lat": "52.4636049", "tel": "784 50 10", "id": "384"}, {"website": "www.family-and-friends-eV.de", "fax": "305 55 21", "fee": "K.A.", "from": "11.09.2015", "name": "28. Wein- und Winzerfest - Wein trifft Kunst", "zip": "12309", "lon": "13.4108653", "mail": "weinfest@family-and-friends-eV.de", "comments": "", "county": "Tempelhof-Sch\u00f6neberg", "to": "13.09.2015", "host": "Family & Friends e. V.", "location": "das Original am Dorfteich, Alt-Lichtenrade", "time": "Fr 16:00-22:00\nSa 12:00-23:00\nSo 12:00-20:00", "lat": "52.3965641", "tel": "305 55 21", "id": "386"}, {"website": "www.nareyka.de", "fax": "229 25 00", "fee": "Eintritt frei", "from": "14.05.2015", "name": "19. Traditionelles Hauptstra\u00dfenfest", "zip": "10827", "lon": "13.3568684", "mail": "info@nareyka.de", "comments": "", "county": "Tempelhof-Sch\u00f6neberg", "to": "17.05.2015", "host": "Nareyka Event GmbH", "location": "Berlin-Sch\u00f6neberg zwischen Kaiser-Wilhelm-Platz und Dominicusstra\u00dfe", "time": "Sa.-So. 10-22 Uhr, Mo. 10-20 Uhr", "lat": "52.4865266", "tel": "229 04 86/87", "id": "388"}, {"website": "www.MS-Event-Agentur.com", "fax": "", "fee": "K.A.", "from": "03.10.2015", "name": "16. Sch\u00f6neberger K\u00fcrbisfest", "zip": "10823", "lon": "13.3546938", "mail": "sieg@ms-event-agentur.com", "comments": "unter der Schirmherrschaft der Bezirksb\u00fcrgermeisterin A. Sch\u00f6ttler von Tempelhof-Sch\u00f6neberg", "county": "Tempelhof-Sch\u00f6neberg", "to": "04.10.2015", "host": "MS-Event-Agentur, Frau Sieg-Heuke", "location": "Akazienstra\u00dfe, Belziger Stra\u00dfe, Berlin-Sch\u00f6neberg", "time": "Sa 11:00-21:00\nSo 10:00-20:00", "lat": "52.4874748", "tel": "0173/237 88 55", "id": "390"}, {"website": "www.digberlin.de", "fax": "", "fee": "Eintritt frei", "from": "24.04.2015", "name": "Israel-Tag", "zip": "10789", "lon": "13.3431777", "mail": "israeltag.berlin@gmail.com", "comments": "schalom@digberlin.de", "county": "Tempelhof-Sch\u00f6neberg", "to": "24.04.2015", "host": "Deutsch-Israelische Gesellschaft e. V., Arbeitsgemeinschaft Berlin und Potsdam, Auguststr. 80, 10117 Berlin", "location": "Wittenbergplatz", "time": "15:00-18:00", "lat": "52.5020603", "tel": "", "id": "636"}, {"website": "www.winzerfest-k\u00f6penick.de", "fax": "61 67 40 09", "fee": "K.A.", "from": "24.04.2015", "name": "11. K\u00f6penicker Winzerfr\u00fchling", "zip": "12555", "lon": "13.5770723013202", "mail": "info@lemaitre-events.de", "comments": "", "county": "Treptow-K\u00f6penick", "to": "26.04.2015", "host": "IG Altstadt K\u00f6penick e. V./Bezirksamt Treptow-K\u00f6penick, Herr Lemaitre", "location": "Altstadt K\u00f6penick, Luisenhain und Schlossinsel", "time": "Fr ab 14:00\nSa ab 12:00\nSo ab 11:00", "lat": "52.44622525", "tel": "0173/617 25 5", "id": "392"}, {"website": "info@schlesingerevents.de", "fax": "", "fee": "K.A.", "from": "01.05.2015", "name": "3. Berliner Wassersportfest", "zip": "12527", "lon": "13.5823213994461", "mail": "info@wassersportfest.de", "comments": "Organisation: Schlesinger Events", "county": "Treptow-K\u00f6penick", "to": "03.05.2015", "host": "Berliner Wassersportfest GmbH, Gr\u00fcnstr. 4, 12555 Berlin", "location": "Regatta-Anlage Berlin-Gr\u00fcnau im, am und auf dem Langen See", "time": "10:00-20:00", "lat": "52.41604015", "tel": "89 37 66 98", "id": "394"}, {"website": "www.spaethsche-baumschulen.de", "fax": "63 90 03 30", "fee": "Eintritt 5 \u20ac, Kinder bis 16 Jahre frei", "from": "09.05.2015", "name": "Sp\u00e4th'er Fr\u00fchling", "zip": "12437", "lon": "13.4735005", "mail": "info@spaethsche-baumschulen.de", "comments": "", "county": "Treptow-K\u00f6penick", "to": "10.05.2015", "host": "Sp\u00e4th'sche Baumschulen Handel GmbH", "location": "Berlin-Baumschulenweg, Sp\u00e4thstr. 80/81", "time": "09:00-18:00", "lat": "52.453638", "tel": "639 00 30", "id": "396"}, {"website": "www.laubinger.de", "fax": "033439/14 34 92", "fee": "K.A.", "from": "09.05.2015", "name": "25. Fest auf der B\u00f6lsche", "zip": "12587", "lon": "13.6254676", "mail": "info@laubinger.de", "comments": "traditionsreiches Stra\u00dfenfest mit gro\u00dfem B\u00fchnenprogramm, Feuerwerk auf dem M\u00fcggelsee, Tr\u00f6del- und Kunstmarkt in Zusammenarbeit mit: Werbegemeinschaft Friedrichshagen e. V.", "county": "Treptow-K\u00f6penick", "to": "10.05.2015", "host": "LAUBINGER Veranstaltungsagentur", "location": "B\u00f6lschestra\u00dfe Friedrichshagen", "time": "ab 10:00", "lat": "52.4569481", "tel": "033439/14 34 90", "id": "398"}, {"website": "www.demokratie-tk.de", "fax": "65 48 72 93", "fee": "Eintritt frei", "from": "30.05.2015", "name": "Fest f\u00fcr Demokratie", "zip": "12439", "lon": "13.5096244", "mail": "zentrum@offensiv91.de", "comments": "", "county": "Treptow-K\u00f6penick", "to": "30.05.2015", "host": "B\u00fcndnis f\u00fcr Demokratie und Toleranz, Frau Kati Becker", "location": "Am Bahnhof Sch\u00f6neweide und auf der Schnellerstra\u00dfe", "time": "13:00-20:00", "lat": "52.4562562", "tel": "\n65 48 72 93", "id": "400"}, {"website": "www.kukuk-berlin.de", "fax": "", "fee": "Eintritt frei", "from": "27.05.2015", "name": "Musik im Park", "zip": "12557", "lon": "13.5730105968837", "mail": "info@kukuk-berlin.de", "comments": "Livemusik", "county": "Treptow-K\u00f6penick", "to": "26.08.2015", "host": "KuKuK e. V., Puchanstr. 7, 12555 Berlin, Matthias Schlesinger", "location": "Schlossinsel K\u00f6penick", "time": "jeden Mittwoch ab 18:00", "lat": "52.4430914", "tel": "0173/543 60 73 und 68", "id": "402"}, {"website": "www.mueggelheimer-heimatverein.de", "fax": "65 94 15 33", "fee": "K.A.", "from": "05.06.2015", "name": "M\u00fcggelheimer Angerfest", "zip": "12559", "lon": "13.6635698", "mail": "mueggelheimer-heimatverein@gmx.de", "comments": "Beginn am 04.06.: mit Rockmusik durch die Winzernacht auf dem Genzler-Hof", "county": "Treptow-K\u00f6penick", "to": "07.06.2015", "host": "M\u00fcggelheimer Heimatverein e. V., Herr Belitz", "location": "Dorfanger M\u00fcggelheim, Genzler-Hof, Alt-M\u00fcggelheim 9, und Baeyer-Hof, Alt-M\u00fcggelheim 5", "time": "", "lat": "52.4110668", "tel": "659 86 13", "id": "404"}, {"website": "www.j\u00fcttner-entertainment.de", "fax": "52 64 66 90", "fee": "Eintritt frei", "from": "19.06.2015", "name": "54. K\u00f6penicker Sommer mit dem historischen Festumzug und gro\u00dfem H\u00f6henfeuerwerk", "zip": "12555", "lon": "13.5770723013202", "mail": "info@juettner-entertainment.de", "comments": "ch.juettner@web.de, ", "county": "Treptow-K\u00f6penick", "to": "21.06.2015", "host": "J\u00fcttner Entertainment, Christian J\u00fcttner", "location": "entlang der K\u00f6penicker Altstadt", "time": "Fr 12:00-22:30\nSa 10:00-22:30 (im Luisenhain bis 24:00)\nSo 10:00-20:00", "lat": "52.44622525", "tel": "52 64 66 89 und 0152/33 90 83 98", "id": "406"}, {"website": "www.der-coepenicker.de", "fax": "65 88 00 93", "fee": "K.A.", "from": "20.06.2015", "name": "19. Kietzer Sommer", "zip": "12557", "lon": "13.5768967", "mail": "coepenicker@online.de", "comments": "", "county": "Treptow-K\u00f6penick", "to": "20.06.2015", "host": "Der C\u00f6penicker e. V.", "location": "Fischerkietz", "time": "11:00-23:00", "lat": "52.4428089", "tel": "65 88 00 94", "id": "408"}, {"website": "www.fetedelamusique.de", "fax": "", "fee": "Eintritt frei", "from": "21.06.2015", "name": "21. F\u00eate de la Musique", "zip": "", "lon": "13.6001848", "mail": "hallo@fetedelamusique.de", "comments": "Veranstaltungsorte und Uhrzeiten: siehe gesondertes Verzeichnis", "county": "Treptow-K\u00f6penick", "to": "21.06.2015", "host": "F\u00eate Company, Wallstr. 15a, 10179 Berlin", "location": "", "time": "ab 16:00", "lat": "52.417893", "tel": "", "id": "410"}, {"website": "www.mueggelheimer-heimatverein.de", "fax": "65 94 15 33", "fee": "K.A:", "from": "27.06.2015", "name": "19. M\u00fcggelland-Rallye mit MG-Club Berlin - Old-Timer-Show", "zip": "12489", "lon": "13.5498344962229", "mail": "Mueggelheimer-heimatverein@gmx.de", "comments": "Old-Timer Show auf dem Dorfanger ab ca. 15:00", "county": "Treptow-K\u00f6penick", "to": "27.06.2015", "host": "M\u00fcggelheimer Heimatverein e. V., Herr Belitz", "location": "Start in der Stra\u00dfe zwischen Kirche und Alter Schule", "time": "ab 09:00", "lat": "52.4388938", "tel": "659 86 13", "id": "412"}, {"website": "www.winzerfest-k\u00f6penick.de", "fax": "61 67 40 09", "fee": "K.A.", "from": "21.08.2015", "name": "K\u00f6penicker Winzersommer", "zip": "12555", "lon": "13.5770723013202", "mail": "info@lemaitre-events.de", "comments": "", "county": "Treptow-K\u00f6penick", "to": "23.08.2015", "host": "IG Altstadt K\u00f6penick e. V./Bezirksamt K\u00f6penick von Berlin, Herr Lemaitre", "location": "Altstadt K\u00f6penick, Luisenhain und Schlossinsel", "time": "Fr ab 14:00\nSa ab 12:00\nSo ab 11:00", "lat": "52.44622525", "tel": "0173/617 25 51", "id": "414"}, {"website": "www.katzengrabenfest.de", "fax": "90297 - 28 50", "fee": "K.A.", "from": "29.08.2015", "name": "13. Katzengraben-/W\u00e4scherinnenfest", "zip": "12555", "lon": "13.5787245", "mail": "veranstaltungen@ba-tk.berlin.de", "comments": "", "county": "Treptow-K\u00f6penick", "to": "29.08.2015", "host": "Bezirksamt Treptow-K\u00f6penick von Berlin/Anwohnerinitiative \"Organisatorenteam Katzengrabenfest\", Herr Pabst", "location": "Futranplatz", "time": "11:00 -  23:00", "lat": "52.4465136", "tel": "90297 - 27 60", "id": "416"}, {"website": "www.schlesingerevents.de", "fax": "76 76 38 86", "fee": "K.A.", "from": "04.09.2015", "name": "K\u00f6penicker Whiskyfest 2015", "zip": "12555", "lon": "13.6001848", "mail": "info@schlesingerevents.de", "comments": "Eintritt, Organisation: Schlesinger Events", "county": "Treptow-K\u00f6penick", "to": "05.09.2015", "host": "ake GmbH, Herr Karnowski", "location": "freiheit f\u00fcnfzehn", "time": "15:00-23:00", "lat": "52.417893", "tel": "65 88 78 12", "id": "418"}, {"website": "", "fax": "", "fee": "K.A.", "from": "19.09.2015", "name": "19. Adlershofer Herbstfest", "zip": "", "lon": "13.6001848", "mail": "", "comments": "", "county": "Treptow-K\u00f6penick", "to": "19.09.2015", "host": "Adlershofer Festkomitee, Herr Staneczek", "location": "", "time": "11:00 - 19:00", "lat": "52.417893", "tel": "677 24 58", "id": "420"}, {"website": "www.altglienicke.de", "fax": "67 80 54 48", "fee": "K.A.", "from": "13.09.2015", "name": "Altglienicker Sp\u00e4tsommerfest", "zip": "", "lon": "13.5426461", "mail": "", "comments": "", "county": "Treptow-K\u00f6penick", "to": "13.09.2015", "host": "Wirtschaftsverband Altglienicker Unternehmer und Umgebung e. V., Herr Schulz", "location": "Ortskern Altglienicke", "time": "14:00 - 18:00", "lat": "52.4118382", "tel": "673 60 04", "id": "422"}, {"website": "www.johflug.de", "fax": "", "fee": "K.A.", "from": "19.09.2015", "name": "7. Flugkistenrennen 2015", "zip": "12487", "lon": "13.5086335445959", "mail": "info@johflug.de", "comments": "", "county": "Treptow-K\u00f6penick", "to": "19.09.2015", "host": "AG Flugkistenrennen, unterst\u00fctzt durch das Bezirksamt Treptow-K\u00f6penick von Berlin", "location": "Sportanlage, Segelfliegerdamm 47a, Berlin-Johannisthal", "time": "13:00-17:00", "lat": "52.4416444", "tel": "63 97 90 58", "id": "424"}, {"website": "www.spaethsche-baumschulen.de", "fax": "63 90 03 30", "fee": "Eintritt 5 \u20ac, Kinder bis 16 Jahre frei", "from": "19.09.2015", "name": "Traditionsfest mit gr\u00fcnem Markt", "zip": "12437", "lon": "13.4735005", "mail": "info@spaethsche-baumschulen.de", "comments": "", "county": "Treptow-K\u00f6penick", "to": "20.09.2015", "host": "Sp\u00e4th'sche Baumschulen Handel GmbH", "location": "Berlin-Baumschulenweg, Sp\u00e4thstr. 80/81", "time": "09:00-18:00", "lat": "52.453638", "tel": "639 00 30", "id": "426"}, {"website": "www.mueggelheimer-heimatverein.de", "fax": "65 94 15 33", "fee": "K.A.", "from": "19.09.2015", "name": "M\u00fcggelheimer Erntefest mit Schleppjagd (19.09.)", "zip": "12559", "lon": "13.6632605", "mail": "mueggelheimer-heimatverein@gmx.de", "comments": "Hubertusandacht 19.09. 11:45, danach Start der Reiter, Kremser und Radfahrer zur Begleitung der Jagd, R\u00fcckkehr ca. 15:00 mit anschlie\u00dfendem Cur\u00e9e, Alt-M\u00fcggelheim 8", "county": "Treptow-K\u00f6penick", "to": "20.09.2015", "host": "M\u00fcggelheimer Heimatverein e. V., Herr Belitz", "location": "Dorfanger M\u00fcggelheim, Alt-M\u00fcggelheim 8", "time": "ab 10:00", "lat": "52.4111733", "tel": "659 86 13", "id": "428"}, {"website": "www.sg-karolinenhof.de", "fax": "", "fee": "K.A.", "from": "31.10.2015", "name": "Halloween am Langen See", "zip": "12527", "lon": "13.641316", "mail": "", "comments": "", "county": "Treptow-K\u00f6penick", "to": "31.10.2015", "host": "Siedlergemeinschaft Karolinenhof e. V., Rohrwallallee 71, 12527 Berlin", "location": "Wassergrundst\u00fcck Rohrwallallee 71", "time": "ab 17:00", "lat": "52.3902222", "tel": "675 71 28", "id": "430"}, {"website": "www.kunsthand-berlin.de", "fax": "401 74 40", "fee": "K.A.", "from": "29.08.2015", "name": "6. Kunstinsel Werder (Havel)", "zip": "", "lon": "12.9329125", "mail": "info@kunsthand-berlin.de", "comments": "", "county": "Werder (Havel)", "to": "30.08.2015", "host": "Cornelja Hasler, Kunsthand-Berlin", "location": "Marktplatz Inselstadt Werder", "time": "11:00-18:00", "lat": "52.3715809", "tel": "40 63 70 31", "id": "560"}, {"website": "www.wohlthat-entertainment.de", "fax": "247 86 12", "fee": "frei", "from": "25.04.2015", "name": "136. Baumbl\u00fctenfest", "zip": "", "lon": "12.9329125", "mail": "info@wohlthat-entertainment.de", "comments": "", "county": "Werder/Havel", "to": "03.05.2015", "host": "Wohlthat Entertainment GmbH", "location": "Werder/Havel", "time": "ab 13:00", "lat": "52.3715809", "tel": "247 86 11", "id": "456"}, {"website": "www.sandokan.de", "fax": "03327/46 91 24", "fee": "frei", "from": "05.09.2015", "name": "12. Sanddornerntefest", "zip": "14542", "lon": "12.9405889", "mail": "info@sandokan.de", "comments": "", "county": "Werder/OT Petzow", "to": "06.09.2015", "host": "Christine Berger GmbH & Co. KG", "location": "Sanddorn-Garten Christine Berger in Petzow, Fercher Str. 60", "time": "ab 10:00", "lat": "52.3414641", "tel": "03327/46 91 - 0", "id": "578"}, {"website": "www.wassersportzentrum-oranienburg.de", "fax": "03301/53 95 91", "fee": "K.A.", "from": "12.07.2015", "name": "Drachenbootrennen Zehdenick", "zip": "", "lon": "13.3348959", "mail": "info@wassersportzentrum-oranienburg.de", "comments": "", "county": "Zehdenick", "to": "12.07.2015", "host": "Stadt Zehdenick, Organisation: Wassersportzentrum Oranienburg", "location": "zwischen Zugbr\u00fccke und Sportplatz", "time": "09:00-16:00", "lat": "52.9794838", "tel": "03301/53 95 90", "id": "530"}]